[{"name":"許義雄","god":"福德正神","area":"澎湖縣","address":"澎湖縣西嶼鄉池西村27-1號","religion":"道教","buildType":"適用監督寺廟條例寺廟","orgType":"管理人(住持)制","phone":"06-9981635","other":"","location":{"lat":23.602621,"lng":119.504967}},{"name":"游輝真","god":"土地公","area":"宜蘭縣","address":"宜蘭縣大同鄉松羅村鹿場路3號","religion":"道教","buildType":"適用監督寺廟條例寺廟","orgType":"管理委員會制","phone":"03-9801188","other":"","location":{"lat":24.6661022,"lng":121.5920767}},{"name":"王鳳全","god":"福德正神","area":"屏東縣","address":"屏東縣萬丹鄉香內路香社村211號","religion":"道教","buildType":"適用監督寺廟條例寺廟","orgType":"管理委員會制","phone":"08-7772350","other":"","location":{"lat":22.5620944,"lng":120.4685158}},{"name":"沈來配","god":"福德正神","area":"屏東縣","address":"屏東縣萬丹鄉廣安村15-7號","religion":"道教","buildType":"適用監督寺廟條例寺廟","orgType":"管理人(住持)制","phone":"08-0000000","other":"","location":{"lat":22.6147062,"lng":120.4938181}},{"name":"張光號","god":"福德正神","area":"臺中市","address":"臺中市外埔區新厝路馬鳴里8鄰78號","religion":"道教","buildType":"適用監督寺廟條例寺廟","orgType":"管理委員會制","phone":"04-26839135","other":"","location":{"lat":24.3347701,"lng":120.6881498}},{"name":"沈龍泉","god":"福德正神","area":"高雄市","address":"高雄市鳳山區鎮東街三七號","religion":"道教","buildType":"適用監督寺廟條例寺廟","orgType":"管理委員會制","phone":"07-7417350","other":"","location":{"lat":22.6215962,"lng":120.3649945}},{"name":"葉日烱","god":"福德正神","area":"高雄市","address":"高雄市左營區文奇路170巷12-1號","religion":"道教","buildType":"適用監督寺廟條例寺廟","orgType":"管理委員會制","phone":"07-3411911","other":"","location":{"lat":22.6723184,"lng":120.3090291}},{"name":"陳正雄","god":"福德正神","area":"高雄市","address":"高雄市左營區左營大路６巷８１號３樓","religion":"道教","buildType":"適用監督寺廟條例寺廟","orgType":"管理委員會制","phone":"07-5825439","other":"","location":{"lat":22.6803347,"lng":120.2896517}},{"name":"陳正松","god":"福德正神","area":"新北市","address":"新北市三峽區隆恩街110巷17號","religion":"道教","buildType":"適用監督寺廟條例寺廟","orgType":"管理人(住持)制","phone":"-","other":"","location":{"lat":24.942276,"lng":121.3606346}},{"name":"楊自在","god":"土地公","area":"澎湖縣","address":"澎湖縣西嶼鄉合界村78-3號","religion":"道教","buildType":"適用監督寺廟條例寺廟","orgType":"管理人(住持)制","phone":"06-9981182","other":"","location":{"lat":23.6364561,"lng":119.5267215}},{"name":"許進清","god":"土地公","area":"澎湖縣","address":"澎湖縣西嶼鄉竹灣村","religion":"道教","buildType":"適用監督寺廟條例寺廟","orgType":"管理人(住持)制","phone":"06-9981819","other":"","location":{"lat":23.6324281,"lng":119.5136711}},{"name":"徐文隆","god":"福德正神","area":"屏東縣","address":"屏東縣恆春鎮檳榔路山海里9-11號","religion":"道教","buildType":"適用監督寺廟條例寺廟","orgType":"管理委員會制","phone":"08-8866105","other":"","location":{"lat":21.9652314,"lng":120.7198229}},{"name":"顏党法","god":"福德正神","area":"臺南市","address":"臺南市六甲區裕農街甲東村100巷10號","religion":"道教","buildType":"適用監督寺廟條例寺廟","orgType":"其他","phone":"06-6985692","other":"","location":{"lat":23.2282069,"lng":120.3559011}},{"name":"陳慶森","god":"土地公","area":"宜蘭縣","address":"宜蘭縣大同鄉太平村2鄰土埸1號","religion":"道教","buildType":"適用監督寺廟條例寺廟","orgType":"其他","phone":"03-9809630","other":"","location":{"lat":24.5742388,"lng":121.4949891}},{"name":"鍾秋玉","god":"土地公","area":"澎湖縣","address":"澎湖縣西嶼鄉池東村","religion":"道教","buildType":"適用監督寺廟條例寺廟","orgType":"管理人(住持)制","phone":"06-9983032","other":"","location":{"lat":23.6017141,"lng":119.512221}},{"name":"呂坤廷","god":"福德正神","area":"新北市","address":"新北市三峽區三峽里民權路32號","religion":"道教","buildType":"適用監督寺廟條例寺廟","orgType":"管理委員會制","phone":"02-26731091","other":"","location":{"lat":24.9341315,"lng":121.3700142}},{"name":"羅清洲","god":"福德正神","area":"嘉義縣","address":"嘉義縣梅山鄉水井仔安靖村十一鄰一七之二號","religion":"道教","buildType":"適用監督寺廟條例寺廟","orgType":"其他","phone":"05-2623454","other":""},{"name":"陳媽義","god":"土地公","area":"澎湖縣","address":"澎湖縣西嶼鄉竹灣村","religion":"道教","buildType":"適用監督寺廟條例寺廟","orgType":"管理人(住持)制","phone":"06-998121","other":"","location":{"lat":23.6324281,"lng":119.5136711}},{"name":"毛金財","god":"福德正神","area":"臺南市","address":"臺南市六甲區中正路870號","religion":"道教","buildType":"適用監督寺廟條例寺廟","orgType":"其他","phone":"06-6981028","other":"","location":{"lat":23.2340572,"lng":120.3541583}},{"name":"張武明","god":"福德正神","area":"新北市","address":"新北市三峽區安坑里建安路140之1號前面","religion":"道教","buildType":"適用監督寺廟條例寺廟","orgType":"管理人(住持)制","phone":"02-26726572","other":""},{"name":"簡文忠","god":"福德正神","area":"嘉義縣","address":"嘉義縣梅山鄉生毛樹瑞峰村五鄰25之1號","religion":"道教","buildType":"適用監督寺廟條例寺廟","orgType":"其他","phone":"05-2501597","other":"","location":{"lat":23.5564173,"lng":120.6686386}},{"name":"李清木","god":"福德正神","area":"新竹市","address":"新竹市北區仁德里4鄰北大路249號仁德里4鄰北大路249號","religion":"道教","buildType":"適用監督寺廟條例寺廟","orgType":"其他","phone":"03-5223590","other":""},{"name":"林江葦","god":"福德正神","area":"基隆市","address":"基隆市安樂區麥金路24號","religion":"道教","buildType":"適用監督寺廟條例寺廟","orgType":"管理人(住持)制","phone":"02-24311882","other":"","location":{"lat":25.116076,"lng":121.726775}},{"name":"陳麗芳","god":"福德正神","area":"基隆市","address":"基隆市安樂區麥金路三民里401號之5","religion":"道教","buildType":"適用監督寺廟條例寺廟","orgType":"管理委員會制","phone":"02-24312506","other":"","location":{"lat":25.1230404,"lng":121.7215541}},{"name":"張貴昇","god":"福德正神","area":"屏東縣","address":"屏東縣恆春鎮赤崁路龍水里","religion":"道教","buildType":"適用監督寺廟條例寺廟","orgType":"管理人(住持)制","phone":"08-8893713","other":"","location":{"lat":21.9830572,"lng":120.7327737}},{"name":"陳良清","god":"福德正神","area":"嘉義縣","address":"嘉義縣梅山鄉橫山梅北村一號","religion":"道教","buildType":"適用監督寺廟條例寺廟","orgType":"其他","phone":"05-2621135","other":"","location":{"lat":23.591951,"lng":120.5427789}},{"name":"黃建智","god":"福德正神","area":"基隆市","address":"基隆市安樂區樂利三街五福里38巷13之4號","religion":"道教","buildType":"適用監督寺廟條例寺廟","orgType":"管理委員會制","phone":"02-24324239","other":"","location":{"lat":25.1291559,"lng":121.7189923}},{"name":"賴邱秀昭","god":"福德正神","area":"屏東縣","address":"屏東縣高樹鄉振興路長榮村7-3號","religion":"道教","buildType":"適用監督寺廟條例寺廟","orgType":"管理委員會制","phone":"08-0000000","other":"","location":{"lat":22.8098566,"lng":120.590307}},{"name":"吳伯宗(暫代)","god":"福德正神","area":"基隆市","address":"基隆市安樂區基金二路中崙里1巷8之1號","religion":"道教","buildType":"適用監督寺廟條例寺廟","orgType":"管理委員會制","phone":"02-24310272","other":"","location":{"lat":25.142195,"lng":121.703071}},{"name":"陳俊明","god":"福德正神","area":"新北市","address":"新北市三峽區礁溪里長泰街56巷6之1號","religion":"道教","buildType":"適用監督寺廟條例寺廟","orgType":"管理人(住持)制","phone":"02-26710289","other":"","location":{"lat":24.9313809,"lng":121.378138}},{"name":"王忠和","god":"土地公","area":"屏東縣","address":"屏東縣恆春鎮福德路城西里126號","religion":"道教","buildType":"適用監督寺廟條例寺廟","orgType":"管理人(住持)制","phone":"08-8898651","other":"","location":{"lat":22.0031415,"lng":120.7424423}},{"name":"魏軍訓","god":"福德正神","area":"高雄市","address":"高雄市左營區榮總路442巷37之1號","religion":"道教","buildType":"適用監督寺廟條例寺廟","orgType":"管理委員會制","phone":"07-3459881","other":"","location":{"lat":22.6787592,"lng":120.3216882}},{"name":"廖紹雄","god":"福德正神","area":"南投縣","address":"南投縣鹿谷鄉永豐巷清水村12號","religion":"道教","buildType":"適用監督寺廟條例寺廟","orgType":"管理委員會制","phone":"049-2671660","other":"","location":{"lat":23.7949994,"lng":120.7797656}},{"name":"陳憲龍","god":"福德正神","area":"屏東縣","address":"屏東縣恆春鎮水泉里白砂路5-1號","religion":"道教","buildType":"適用監督寺廟條例寺廟","orgType":"管理人(住持)制","phone":"08-8866190","other":"","location":{"lat":21.9353738,"lng":120.7204219}},{"name":"陳敏彥(暫代)","god":"福德正神","area":"基隆市","address":"基隆市安樂區基金一路新崙里二一0巷二之一號","religion":"道教","buildType":"適用監督寺廟條例寺廟","orgType":"管理委員會制","phone":"02-24315937","other":"","location":{"lat":25.1430651,"lng":121.7088136}},{"name":"鄭錦洲","god":"福德正神","area":"新竹市","address":"新竹市北區崇禮里6鄰中山路254號","religion":"道教","buildType":"適用監督寺廟條例寺廟","orgType":"其他","phone":"03-5229329","other":"","location":{"lat":24.802669,"lng":120.962092}},{"name":"林正義","god":"福德正神","area":"新北市","address":"新北市汐止區大同路三段424號","religion":"道教","buildType":"適用監督寺廟條例寺廟","orgType":"管理委員會制","phone":"02-86483353","other":"","location":{"lat":25.072394,"lng":121.6829211}},{"name":"蘇樹木","god":"福德正神","area":"新北市","address":"新北市汐止區福安街53之1號","religion":"道教","buildType":"適用監督寺廟條例寺廟","orgType":"管理人(住持)制","phone":"02-26433325","other":"","location":{"lat":25.0641799,"lng":121.6635868}},{"name":"彭金全","god":"福德正神","area":"新竹市","address":"新竹市北區城北街137巷15號","religion":"道教","buildType":"適用監督寺廟條例寺廟","orgType":"管理委員會制","phone":"03-5426787","other":"","location":{"lat":24.8122017,"lng":120.9608594}},{"name":"楊明風","god":"福德正神","area":"臺南市","address":"臺南市新市區大營里15鄰289號","religion":"道教","buildType":"適用監督寺廟條例寺廟","orgType":"其他","phone":"-0938583238","other":"","location":{"lat":23.099399,"lng":120.31209}},{"name":"李進風","god":"福德正神","area":"高雄市","address":"高雄市左營區新庄仔路５４８號","religion":"道教","buildType":"適用監督寺廟條例寺廟","orgType":"管理委員會制","phone":"07-5562996","other":"","location":{"lat":22.6697072,"lng":120.3049656}},{"name":"黃朝暉","god":"土地公","area":"屏東縣","address":"屏東縣恆春鎮山腳里路4--2號","religion":"道教","buildType":"適用監督寺廟條例寺廟","orgType":"管理人(住持)制","phone":"08-8898315","other":"","location":{"lat":21.9984249,"lng":120.7452392}},{"name":"江正道","god":"福德正神","area":"屏東縣","address":"屏東縣恆春鎮大光路大光里55號","religion":"道教","buildType":"適用監督寺廟條例寺廟","orgType":"管理人(住持)制","phone":"08-8866047","other":"","location":{"lat":21.9495886,"lng":120.7371397}},{"name":"鍾仁生","god":"福德正神","area":"新北市","address":"新北市三峽區大埔路34號","religion":"佛教","buildType":"適用監督寺廟條例寺廟","orgType":"管理人(住持)制","phone":"02-26712471","other":"","location":{"lat":24.9089502,"lng":121.3661201}},{"name":"葉春成","god":"福德正神","area":"嘉義縣","address":"嘉義縣梅山鄉公田太和村八鄰七之三號旁","religion":"道教","buildType":"適用監督寺廟條例寺廟","orgType":"其他","phone":"05-2661833","other":""},{"name":"李振銘(暫代)","god":"福德正神","area":"基隆市","address":"基隆市安樂區定國里定街11巷18號","religion":"道教","buildType":"適用監督寺廟條例寺廟","orgType":"管理委員會制","phone":"02-24238180","other":"","location":{"lat":25.1335212,"lng":121.7334971}},{"name":"王清明","god":"福德正神","area":"新竹市","address":"新竹市北區民富里5鄰延平路一段138巷52-1號","religion":"道教","buildType":"適用監督寺廟條例寺廟","orgType":"其他","phone":"03-5212079","other":"","location":{"lat":24.805977,"lng":120.958253}},{"name":"林文博","god":"福德正神","area":"嘉義縣","address":"嘉義縣中埔鄉中埔村六鄰（在六鄰二十之一號之東）","religion":"道教","buildType":"適用監督寺廟條例寺廟","orgType":"管理人(住持)制","phone":"05-2534141","other":"","location":{"lat":23.425139,"lng":120.522952}},{"name":"鄭秋水","god":"福德正神","area":"屏東縣","address":"屏東縣佳冬鄉四塊路園村30-9號","religion":"道教","buildType":"適用監督寺廟條例寺廟","orgType":"管理人(住持)制","phone":"-","other":"","location":{"lat":22.4303143,"lng":120.5388246}},{"name":"陳振榮","god":"福德正神","area":"南投縣","address":"南投縣國姓鄉國姓村國姓路","religion":"道教","buildType":"適用監督寺廟條例寺廟","orgType":"管理人(住持)制","phone":"049-2721171","other":"","location":{"lat":24.0344406,"lng":120.8506535}},{"name":"邱德勝","god":"福德正神","area":"桃園市","address":"桃園市大園區下埔五權村4鄰47-3號","religion":"道教","buildType":"適用監督寺廟條例寺廟","orgType":"管理委員會制","phone":"-","other":"","location":{"lat":25.0193543,"lng":121.2261316}},{"name":"黃日郎","god":"福德正神","area":"基隆市","address":"基隆市安樂區安和一街七賢里8號","religion":"道教","buildType":"適用監督寺廟條例寺廟","orgType":"管理委員會制","phone":"02-24323041","other":"","location":{"lat":25.1221527,"lng":121.7231651}},{"name":"張清福","god":"福德正神","area":"臺中市","address":"臺中市大里區東明路291巷47號","religion":"道教","buildType":"適用監督寺廟條例寺廟","orgType":"管理人(住持)制","phone":"04-24077336","other":"","location":{"lat":24.1121725,"lng":120.6820372}},{"name":"蘇立興","god":"福德正神","area":"新竹縣","address":"新竹縣寶山鄉寶斗路寶斗村17巷8號","religion":"道教","buildType":"適用監督寺廟條例寺廟","orgType":"其他","phone":"03-0000000","other":"","location":{"lat":24.7281536,"lng":120.9515969}},{"name":"莊樹卿","god":"福德正神","area":"宜蘭縣","address":"宜蘭縣礁溪鄉四結路吳沙村58號之1","religion":"道教","buildType":"適用監督寺廟條例寺廟","orgType":"管理委員會制","phone":"03-9285829","other":"","location":{"lat":24.7952134,"lng":121.7508915}},{"name":"鄭成光","god":"福德正神","area":"新竹市","address":"新竹市香山區朝山里中華路五段420巷126號13號","religion":"道教","buildType":"適用監督寺廟條例寺廟","orgType":"管理委員會制","phone":"03-5383019","other":"","location":{"lat":24.7744686,"lng":120.9149501}},{"name":"蕭武宗","god":"福德正神","area":"高雄市","address":"高雄市燕巢區深水里深水路九號","religion":"道教","buildType":"其他","orgType":"管理人(住持)制","phone":"07-6152073","other":"","location":{"lat":22.7815193,"lng":120.4199548}},{"name":"黃涂忠","god":"福德正神","area":"臺中市","address":"臺中市大里區長春路東湖里208號","religion":"道教","buildType":"適用監督寺廟條例寺廟","orgType":"管理人(住持)制","phone":"04-24937898","other":"","location":{"lat":24.086517,"lng":120.6887698}},{"name":"呂寬義","god":"福德正神","area":"新竹市","address":"新竹市東區前溪里經國路一段210之1號","religion":"道教","buildType":"適用監督寺廟條例寺廟","orgType":"其他","phone":"03-5354298","other":"","location":{"lat":24.81573,"lng":120.987137}},{"name":"高銀添","god":"福德正神","area":"臺中市","address":"臺中市大里區好來五街125巷20號","religion":"道教","buildType":"適用監督寺廟條例寺廟","orgType":"管理人(住持)制","phone":"04-22706338","other":"","location":{"lat":24.1070014,"lng":120.7005492}},{"name":"葉宗鑫","god":"福德正神","area":"新北市","address":"新北市新莊區福興里五工三路50巷23之1號","religion":"道教","buildType":"適用監督寺廟條例寺廟","orgType":"管理委員會制","phone":"02-22989380","other":"","location":{"lat":25.0661989,"lng":121.461546}},{"name":"連榮富","god":"福德正神","area":"新北市","address":"新北市新莊區思源路177巷32號","religion":"道教","buildType":"適用監督寺廟條例寺廟","orgType":"管理人(住持)制","phone":"02-29921281","other":"","location":{"lat":25.0462052,"lng":121.4594617}},{"name":"蔣根煌","god":"福德正神","area":"新北市","address":"新北市新莊區新北大道4段2號","religion":"道教","buildType":"適用監督寺廟條例寺廟","orgType":"管理人(住持)制","phone":"02-85218810","other":"","location":{"lat":25.0603464,"lng":121.4507172}},{"name":"翁秀雄(暫代)","god":"福德正神","area":"基隆市","address":"基隆市安樂區樂一路安和里28巷2號","religion":"道教","buildType":"適用監督寺廟條例寺廟","orgType":"管理委員會制","phone":"02-24250657","other":"","location":{"lat":25.1316829,"lng":121.734619}},{"name":"張金順","god":"福德正神","area":"基隆市","address":"基隆市安樂區安和一街四維里288巷103之4號","religion":"道教","buildType":"適用監督寺廟條例寺廟","orgType":"管理委員會制","phone":"02-24230850","other":"","location":{"lat":25.128212,"lng":121.7262136}},{"name":"謝漢漾","god":"福德正神","area":"新竹市","address":"新竹市東區高峰里15鄰高峰路386巷60弄2之1號","religion":"道教","buildType":"適用監督寺廟條例寺廟","orgType":"管理委員會制","phone":"03-5236852","other":"","location":{"lat":24.7791393,"lng":120.9797708}},{"name":"洪平順","god":"福德正神","area":"彰化縣","address":"彰化縣芳苑鄉斗苑路三合段三合村238巷臨82號","religion":"道教","buildType":"適用監督寺廟條例寺廟","orgType":"管理委員會制","phone":"04-8969415","other":"","location":{"lat":23.9011635,"lng":120.3587952}},{"name":"吳漢舜","god":"福德正神","area":"宜蘭縣","address":"宜蘭縣礁溪鄉柴圍路白鵝村11之5號","religion":"道教","buildType":"適用監督寺廟條例寺廟","orgType":"管理委員會制","phone":"03-9281545","other":"","location":{"lat":24.802133,"lng":121.758925}},{"name":"鄭佳仁","god":"福德正神","area":"新竹市","address":"新竹市香山區埔前里4鄰長福街24號","religion":"道教","buildType":"適用監督寺廟條例寺廟","orgType":"其他","phone":"03-5376055","other":"","location":{"lat":24.7968781,"lng":120.9409131}},{"name":"吳清鳳","god":"福德正神","area":"屏東縣","address":"屏東縣恆春鎮燈塔路鵝鑾里171號","religion":"道教","buildType":"適用監督寺廟條例寺廟","orgType":"管理委員會制","phone":"08-8851409","other":"","location":{"lat":21.9036119,"lng":120.8521208}},{"name":"陳久義","god":"福德正神","area":"嘉義縣","address":"嘉義縣梅山鄉全仔社太和村六鄰七之一號旁","religion":"道教","buildType":"適用監督寺廟條例寺廟","orgType":"其他","phone":"05-2661066","other":""},{"name":"林俊謀","god":"福德正神","area":"嘉義縣","address":"嘉義縣梅山鄉三源圳南村五鄰路二十之一號","religion":"道教","buildType":"適用監督寺廟條例寺廟","orgType":"其他","phone":"05-2626556","other":"","location":{"lat":23.5767442,"lng":120.5900917}},{"name":"陳俊秀","god":"福德正神","area":"新北市","address":"新北市新莊區中港里中港路483巷8號","religion":"道教","buildType":"適用監督寺廟條例寺廟","orgType":"管理人(住持)制","phone":"02-29978007","other":"","location":{"lat":25.036844,"lng":121.45507}},{"name":"張家精","god":"福德正神","area":"新北市","address":"新北市新莊區海山里新莊路637號","religion":"道教","buildType":"適用監督寺廟條例寺廟","orgType":"管理委員會制","phone":"02-22011603","other":"","location":{"lat":25.0327847,"lng":121.44534}},{"name":"林火烈","god":"福德正神","area":"臺中市","address":"臺中市大里區景庄街160號旁","religion":"道教","buildType":"適用監督寺廟條例寺廟","orgType":"管理人(住持)制","phone":"04-24966301","other":"","location":{"lat":24.083101,"lng":120.687728}},{"name":"謝丙申","god":"福德正神","area":"宜蘭縣","address":"宜蘭縣礁溪鄉武暖路光武村7-17號","religion":"道教","buildType":"適用監督寺廟條例寺廟","orgType":"管理委員會制","phone":"03-9303640","other":"","location":{"lat":24.7825777,"lng":121.769377}},{"name":"陳阿寶","god":"福德正神","area":"桃園市","address":"桃園市大園區新興路田心村九鄰81號","religion":"道教","buildType":"適用監督寺廟條例寺廟","orgType":"管理委員會制","phone":"03-3861662","other":"","location":{"lat":25.0628374,"lng":121.1949606}},{"name":"江雲水","god":"福德正神","area":"新竹市","address":"新竹市東區南大里4鄰西大路72巷1號","religion":"道教","buildType":"適用監督寺廟條例寺廟","orgType":"其他","phone":"03-5225791","other":"","location":{"lat":24.79417,"lng":120.9727017}},{"name":"陳世明","god":"福德正神","area":"新竹市","address":"新竹市東區東勢里2鄰東勝路46號東勢里2鄰東勝路46號","religion":"道教","buildType":"適用監督寺廟條例寺廟","orgType":"其他","phone":"03-5752613","other":""},{"name":"蔡金山","god":"福德正神","area":"屏東縣","address":"屏東縣潮州鎮重義巷三共里33-1號","religion":"道教","buildType":"適用監督寺廟條例寺廟","orgType":"管理委員會制","phone":"08-7890324","other":"","location":{"lat":22.5599738,"lng":120.5404693}},{"name":"劉丁來","god":"福德正神","area":"新竹市","address":"新竹市香山區中隘里中華路六段703巷23弄7號","religion":"道教","buildType":"適用監督寺廟條例寺廟","orgType":"其他","phone":"03-5371541","other":"","location":{"lat":24.728954,"lng":120.918117}},{"name":"林重信","god":"福德正神","area":"新北市","address":"新北市新莊區恆安里11鄰中港路108號","religion":"道教","buildType":"適用監督寺廟條例寺廟","orgType":"管理委員會制","phone":"02-29924684","other":"","location":{"lat":25.0397486,"lng":121.4554428}},{"name":"陳慶隆","god":"福德正神","area":"新北市","address":"新北市新莊區福基里化成路750號","religion":"道教","buildType":"適用監督寺廟條例寺廟","orgType":"管理人(住持)制","phone":"02-85218390","other":"","location":{"lat":25.057779,"lng":121.465724}},{"name":"賴同育","god":"福德正神","area":"彰化縣","address":"彰化縣社頭鄉民生路崙雅村421號","religion":"道教","buildType":"其他","orgType":"其他","phone":"04-8734338","other":"","location":{"lat":23.8910849,"lng":120.5886702}},{"name":"何永川","god":"福德正神","area":"新竹市","address":"新竹市東區高峰路202巷3號","religion":"道教","buildType":"適用監督寺廟條例寺廟","orgType":"其他","phone":"03-5230176","other":"","location":{"lat":24.7858578,"lng":120.9763586}},{"name":"陳達宏","god":"福德正神","area":"基隆市","address":"基隆市安樂區基金三路內寮里68號前","religion":"道教","buildType":"適用監督寺廟條例寺廟","orgType":"管理委員會制","phone":"02-24310372","other":""},{"name":"昌郁清","god":"福德正神","area":"彰化縣","address":"彰化縣鹿港鎮玉順里三條巷1號","religion":"道教","buildType":"適用監督寺廟條例寺廟","orgType":"其他","phone":"04-7754848","other":"","location":{"lat":24.0600613,"lng":120.4301859}},{"name":"李正家","god":"福德正神","area":"新北市","address":"新北市新莊區南港里後港二路18之1號","religion":"道教","buildType":"適用監督寺廟條例寺廟","orgType":"管理委員會制","phone":"02-22025921","other":"","location":{"lat":25.024567,"lng":121.423308}},{"name":"蘇湧生","god":"福德正神","area":"新竹市","address":"新竹市香山區美山里1鄰中華路五段320巷48號","religion":"道教","buildType":"適用監督寺廟條例寺廟","orgType":"管理委員會制","phone":"03-5382413","other":"","location":{"lat":24.7831713,"lng":120.9164381}},{"name":"胡燦堂","god":"福德正神","area":"宜蘭縣","address":"宜蘭縣礁溪鄉武暖路光武村124-2號","religion":"道教","buildType":"適用監督寺廟條例寺廟","orgType":"管理委員會制","phone":"03-9304140","other":"","location":{"lat":24.782745,"lng":121.776796}},{"name":"陳義政","god":"福德正神","area":"新北市","address":"新北市新莊區龍鳳里中正路893巷5號之2","religion":"道教","buildType":"適用監督寺廟條例寺廟","orgType":"管理委員會制","phone":"02-29015520","other":"","location":{"lat":25.0209132,"lng":121.4134405}},{"name":"徐垂勇","god":"福德正神","area":"桃園市","address":"桃園市蘆竹區頭前坑口村20鄰74號","religion":"道教","buildType":"適用監督寺廟條例寺廟","orgType":"管理委員會制","phone":"03-3543478","other":""},{"name":"顧金土","god":"福德正神","area":"彰化縣","address":"彰化縣花壇鄉永春村福德巷31號","religion":"道教","buildType":"適用監督寺廟條例寺廟","orgType":"其他","phone":"04-7864031","other":"","location":{"lat":24.0447553,"lng":120.5609739}},{"name":"簡許泉(暫代)","god":"福德正神","area":"基隆市","address":"基隆市信義區壽山路12之3號","religion":"道教","buildType":"適用監督寺廟條例寺廟","orgType":"其他","phone":"02-24280183","other":"","location":{"lat":25.1324731,"lng":121.7502821}},{"name":"林水生","god":"福德正神","area":"桃園市","address":"桃園市蘆竹區南崁路錦中里13鄰222號","religion":"道教","buildType":"適用監督寺廟條例寺廟","orgType":"管理委員會制","phone":"03-3524071","other":"","location":{"lat":25.048658,"lng":121.2936679}},{"name":"翁文達","god":"福德正神","area":"新北市","address":"新北市新莊區文德里新莊路207號","religion":"道教","buildType":"適用監督寺廟條例寺廟","orgType":"管理人(住持)制","phone":"02-29929884","other":"","location":{"lat":25.0354967,"lng":121.4553313}},{"name":"陳煥昌","god":"福德正神","area":"桃園市","address":"桃園市大園區成功街竹圍村五十九巷三弄","religion":"道教","buildType":"適用監督寺廟條例寺廟","orgType":"管理委員會制","phone":"03-3831188","other":"","location":{"lat":25.1013281,"lng":121.2398008}},{"name":"賴長正","god":"土地公","area":"臺中市","address":"臺中市太平區新福里振福路215巷52號","religion":"道教","buildType":"適用監督寺廟條例寺廟","orgType":"管理人(住持)制","phone":"04-23956527","other":"","location":{"lat":24.1507452,"lng":120.7057739}},{"name":"洪進上","god":"福德正神","area":"新竹市","address":"新竹市北區湳中里8鄰湳中街40巷40-7號","religion":"道教","buildType":"適用監督寺廟條例寺廟","orgType":"管理委員會制","phone":"03-5346632","other":"","location":{"lat":24.8215825,"lng":120.9664686}},{"name":"鄭正義","god":"福德正神","area":"新竹市","address":"新竹市北區舊社里4鄰鐵道路二段166巷47號","religion":"道教","buildType":"適用監督寺廟條例寺廟","orgType":"管理人(住持)制","phone":"03-5310216","other":"","location":{"lat":24.8233495,"lng":120.9723639}},{"name":"陳中和","god":"土地公","area":"臺中市","address":"臺中市太平區中南路23號","religion":"道教","buildType":"適用監督寺廟條例寺廟","orgType":"管理人(住持)制","phone":"04-22788061","other":"","location":{"lat":24.1239,"lng":120.714317}},{"name":"童輝煌","god":"福德正神","area":"彰化縣","address":"彰化縣花壇鄉金墩村金墩街121號","religion":"道教","buildType":"適用監督寺廟條例寺廟","orgType":"其他","phone":"04-7866050","other":"","location":{"lat":24.0191372,"lng":120.5436882}},{"name":"江和樹","god":"福德正神","area":"臺中市","address":"臺中市大里區立仁三路50之1號","religion":"道教","buildType":"適用監督寺廟條例寺廟","orgType":"管理人(住持)制","phone":"04-22797977","other":"","location":{"lat":24.103479,"lng":120.7007}},{"name":"林清良","god":"福德正神","area":"新竹市","address":"新竹市東區光鎮里19鄰南大路748巷13號","religion":"道教","buildType":"適用監督寺廟條例寺廟","orgType":"管理委員會制","phone":"03-5269469","other":"","location":{"lat":24.7890836,"lng":120.9641205}},{"name":"吳原豪","god":"福德正神","area":"新北市","address":"新北市新莊區民安西路410巷6號","religion":"道教","buildType":"適用監督寺廟條例寺廟","orgType":"管理委員會制","phone":"02-22022707","other":"","location":{"lat":25.0217143,"lng":121.4263905}},{"name":"王增塘","god":"福德正神","area":"屏東縣","address":"屏東縣佳冬鄉葫爐路賴家村12鄰","religion":"道教","buildType":"適用監督寺廟條例寺廟","orgType":"管理人(住持)制","phone":"-","other":"","location":{"lat":22.3997761,"lng":120.5492988}},{"name":"張火城","god":"福德正神","area":"新北市","address":"新北市新莊區瓊林路48號","religion":"道教","buildType":"適用監督寺廟條例寺廟","orgType":"管理委員會制","phone":"02-22056696","other":"","location":{"lat":25.0211148,"lng":121.4396071}},{"name":"蕭文欽","god":"福德正神","area":"臺中市","address":"臺中市大里區慈德路177號","religion":"道教","buildType":"適用監督寺廟條例寺廟","orgType":"管理委員會制","phone":"04-24916528","other":"","location":{"lat":24.0959751,"lng":120.6986792}},{"name":"陳錦璋","god":"土地公","area":"雲林縣","address":"雲林縣麥寮鄉中興路麥津村150號","religion":"道教","buildType":"適用監督寺廟條例寺廟","orgType":"管理人(住持)制","phone":"05-6932356","other":"","location":{"lat":23.7541618,"lng":120.2520885}},{"name":"曾炎基","god":"福德正神","area":"新竹市","address":"新竹市香山區中埔里7鄰牛埔東路150巷3號","religion":"道教","buildType":"適用監督寺廟條例寺廟","orgType":"管理委員會制","phone":"03-5386461","other":"","location":{"lat":24.7993561,"lng":120.951492}},{"name":"石炳男","god":"福德正神","area":"臺中市","address":"臺中市大里區福德路40號旁","religion":"道教","buildType":"適用監督寺廟條例寺廟","orgType":"管理人(住持)制","phone":"04-24064217","other":""},{"name":"邱進賢","god":"福德正神","area":"桃園市","address":"桃園市蘆竹區蘆興里7鄰蘆興街487巷36號","religion":"道教","buildType":"適用監督寺廟條例寺廟","orgType":"管理委員會制","phone":"03-3227055","other":"","location":{"lat":25.0427022,"lng":121.2770704}},{"name":"石弘宗","god":"福德正神","area":"高雄市","address":"高雄市燕巢區深水里湖子內巷一八之一號","religion":"道教","buildType":"其他","orgType":"管理人(住持)制","phone":"07-6161575","other":""},{"name":"林長川","god":"福德正神","area":"新北市","address":"新北市新莊區忠孝里仁愛街16號之5","religion":"道教","buildType":"適用監督寺廟條例寺廟","orgType":"管理人(住持)制","phone":"02-29961966","other":"","location":{"lat":25.0354922,"lng":121.4443425}},{"name":"陳專森","god":"福德正神","area":"新北市","address":"新北市新莊區天泉二街36巷1號","religion":"道教","buildType":"適用監督寺廟條例寺廟","orgType":"管理人(住持)制","phone":"02-29016802","other":"","location":{"lat":25.0273338,"lng":121.41294}},{"name":"蔡德坤","god":"福德正神","area":"新竹市","address":"新竹市東區高峰里寶山路142之1號","religion":"道教","buildType":"適用監督寺廟條例寺廟","orgType":"管理委員會制","phone":"03-5220246","other":"","location":{"lat":24.7923491,"lng":120.9753494}},{"name":"林萬金","god":"福德正神","area":"新北市","address":"新北市深坑區草地尾116之1號","religion":"道教","buildType":"適用監督寺廟條例寺廟","orgType":"管理人(住持)制","phone":"02-26621774","other":"","location":{"lat":24.988664,"lng":121.543984}},{"name":"陳永清","god":"福德正神","area":"屏東縣","address":"屏東縣潮州鎮西市路同榮里2號","religion":"道教","buildType":"適用監督寺廟條例寺廟","orgType":"管理委員會制","phone":"08-7893360","other":"","location":{"lat":22.5498395,"lng":120.5410869}},{"name":"柳宗義","god":"福德正神","area":"新竹市","address":"新竹市東區潛園里西大路469巷17號潛園里西大路469巷17號","religion":"道教","buildType":"適用監督寺廟條例寺廟","orgType":"其他","phone":"03-5331819","other":""},{"name":"葉秦楊","god":"福德正神","area":"新北市","address":"新北市新莊區頭前里頭前路15巷1號","religion":"道教","buildType":"適用監督寺廟條例寺廟","orgType":"管理人(住持)制","phone":"02-89915390","other":""},{"name":"陳清溪","god":"福德正神","area":"新北市","address":"新北市汐止區宜興里林森街70號","religion":"道教","buildType":"適用監督寺廟條例寺廟","orgType":"管理委員會制","phone":"02-26603305","other":"","location":{"lat":25.0408435,"lng":121.6231926}},{"name":"顏福雄","god":"福德正神","area":"苗栗縣","address":"苗栗縣竹南鎮營盤邊營盤里16鄰54之7號","religion":"佛教","buildType":"適用監督寺廟條例寺廟","orgType":"其他","phone":"037-473377","other":""},{"name":"劉燕祥","god":"福德正神","area":"苗栗縣","address":"苗栗縣頭份市田寮里11鄰157號","religion":"道教","buildType":"適用監督寺廟條例寺廟","orgType":"其他","phone":"037-622791","other":"","location":{"lat":24.680627,"lng":120.889339}},{"name":"陳源坤","god":"福德正神","area":"苗栗縣","address":"苗栗縣頭份市文林路後庄里2鄰36巷96號","religion":"道教","buildType":"適用監督寺廟條例寺廟","orgType":"其他","phone":"037-000000","other":"","location":{"lat":24.6983159,"lng":120.8911571}},{"name":"李銘德","god":"福德正神","area":"基隆市","address":"基隆市中山區仁安街5號","religion":"道教","buildType":"適用監督寺廟條例寺廟","orgType":"管理人(住持)制","phone":"02-24264633","other":"","location":{"lat":25.1452348,"lng":121.7479126}},{"name":"鄭有德","god":"福德正神","area":"金門縣","address":"金門縣金湖鎮溪邊溪湖里","religion":"道教","buildType":"適用監督寺廟條例寺廟","orgType":"管理委員會制","phone":"082-331300","other":"","location":{"lat":24.4398797,"lng":118.46089}},{"name":"洪銘鎮","god":"福德正神","area":"宜蘭縣","address":"宜蘭縣五結鄉五結村新生路20號","religion":"道教","buildType":"適用監督寺廟條例寺廟","orgType":"管理委員會制","phone":"03-9507427","other":"","location":{"lat":24.6854041,"lng":121.7969543}},{"name":"高志肇","god":"福德正神","area":"宜蘭縣","address":"宜蘭縣五結鄉上四村福德路68號","religion":"道教","buildType":"適用監督寺廟條例寺廟","orgType":"管理委員會制","phone":"03-9650428","other":"","location":{"lat":24.6973774,"lng":121.7656291}},{"name":"陳林麗花","god":"福德正神","area":"宜蘭縣","address":"宜蘭縣五結鄉孝威村孝威南路51號","religion":"道教","buildType":"適用監督寺廟條例寺廟","orgType":"管理委員會制","phone":"03-9501115","other":"","location":{"lat":24.685842,"lng":121.813941}},{"name":"林其峰","god":"福德正神","area":"新北市","address":"新北市瑞芳區上天里滴水子路29號","religion":"道教","buildType":"適用監督寺廟條例寺廟","orgType":"管理人(住持)制","phone":"02-24578822","other":""},{"name":"陳欽宗","god":"福德正神","area":"新北市","address":"新北市瑞芳區石山里五號路253之1號","religion":"道教","buildType":"適用監督寺廟條例寺廟","orgType":"管理委員會制","phone":"02-24961841","other":"","location":{"lat":25.1106788,"lng":121.8555214}},{"name":"簡輝雄","god":"福德正神","area":"高雄市","address":"高雄市鳳山區過埤里過埤巷五一巷一九之一號","religion":"道教","buildType":"適用監督寺廟條例寺廟","orgType":"管理委員會制","phone":"07-7920404","other":"","location":{"lat":22.5884123,"lng":120.3675636}},{"name":"翁鬧養","god":"福德正神","area":"高雄市","address":"高雄市鳳山區鳳松路北門里二○巷五號","religion":"道教","buildType":"適用監督寺廟條例寺廟","orgType":"管理委員會制","phone":"07-7469488","other":""},{"name":"于文男","god":"福德正神","area":"基隆市","address":"基隆市信義區東信路73號","religion":"道教","buildType":"適用監督寺廟條例寺廟","orgType":"管理委員會制","phone":"02-24661431","other":"","location":{"lat":25.1277178,"lng":121.765293}},{"name":"鄭能助","god":"福德正神","area":"屏東縣","address":"屏東縣林邊鄉下庄竹林村路","religion":"道教","buildType":"適用監督寺廟條例寺廟","orgType":"管理委員會制","phone":"08-8751877","other":"","location":{"lat":22.4617019,"lng":120.5310814}},{"name":"廖金銓","god":"福德正神","area":"臺中市","address":"臺中市神岡區岸裡里中山路241巷1號旁","religion":"道教","buildType":"適用監督寺廟條例寺廟","orgType":"管理委員會制","phone":"04-25206327","other":"","location":{"lat":24.248969,"lng":120.697722}},{"name":"楊騰芳","god":"福德正神","area":"臺中市","address":"臺中市北屯區太原路3段535之1號","religion":"道教","buildType":"適用監督寺廟條例寺廟","orgType":"其他","phone":"04-24371949","other":"","location":{"lat":24.1647804,"lng":120.7012592}},{"name":"李明恭","god":"福德正神","area":"雲林縣","address":"雲林縣崙背鄉中山路福德巷西榮村","religion":"道教","buildType":"適用監督寺廟條例寺廟","orgType":"管理委員會制","phone":"05-6962778","other":""},{"name":"蕭養","god":"福德正神","area":"彰化縣","address":"彰化縣社頭鄉社頭村員集路二段168號","religion":"道教","buildType":"適用監督寺廟條例寺廟","orgType":"管理人(住持)制","phone":"04-8732837","other":"","location":{"lat":23.8976618,"lng":120.5880668}},{"name":"黃得立","god":"土地公","area":"臺中市","address":"臺中市石岡區梅子里和順巷91之1號","religion":"道教","buildType":"適用監督寺廟條例寺廟","orgType":"管理委員會制","phone":"04-25818799","other":"","location":{"lat":24.2750724,"lng":120.8047095}},{"name":"張阿行","god":"福德正神","area":"臺中市","address":"臺中市石岡區和盛街德興里3鄰南眉巷130-4號","religion":"道教","buildType":"適用監督寺廟條例寺廟","orgType":"管理人(住持)制","phone":"04-25819513","other":"","location":{"lat":24.2599844,"lng":120.8163205}},{"name":"胡祥畯","god":"福德正神","area":"彰化縣","address":"彰化縣埔鹽鄉埔打路打廉村40號","religion":"道教","buildType":"適用監督寺廟條例寺廟","orgType":"管理委員會制","phone":"04-8850225","other":"","location":{"lat":23.9795077,"lng":120.4906942}},{"name":"胡高爾","god":"福德正神","area":"新北市","address":"新北市新莊區泰豐里瓊林路32號","religion":"道教","buildType":"適用監督寺廟條例寺廟","orgType":"管理委員會制","phone":"02-22023473","other":"","location":{"lat":25.0305058,"lng":121.4484108}},{"name":"陳旺佳","god":"福德正神","area":"新北市","address":"新北市瑞芳區鼻頭路1號後","religion":"道教","buildType":"適用監督寺廟條例寺廟","orgType":"管理人(住持)制","phone":"09-63757871","other":"","location":{"lat":25.125187,"lng":121.915567}},{"name":"林慶芳","god":"福德正神","area":"臺中市","address":"臺中市后里區后里里甲后路585號","religion":"道教","buildType":"適用監督寺廟條例寺廟","orgType":"管理委員會制","phone":"-0930133335","other":"","location":{"lat":24.309544,"lng":120.7183164}},{"name":"陸昌煌","god":"福德正神","area":"臺中市","address":"臺中市后里區仁里里圳寮路80號","religion":"道教","buildType":"適用監督寺廟條例寺廟","orgType":"管理委員會制","phone":"04-25560434","other":"","location":{"lat":24.3123176,"lng":120.7454558}},{"name":"黃儀雄","god":"福德正神","area":"嘉義縣","address":"嘉義縣水上鄉柳子林段內溪村260之40地號","religion":"道教","buildType":"適用監督寺廟條例寺廟","orgType":"管理人(住持)制","phone":"05-2605775","other":""},{"name":"郭雨新","god":"福德正神","area":"臺南市","address":"臺南市安南區城西街501巷62-500號","religion":"道教","buildType":"適用監督寺廟條例寺廟","orgType":"管理委員會制","phone":"06-2573919","other":"","location":{"lat":23.0590899,"lng":120.1228412}},{"name":"簡富雄","god":"土地公","area":"新北市","address":"新北市瑞芳區深澳里14鄰建基路2段45號","religion":"道教","buildType":"適用監督寺廟條例寺廟","orgType":"管理人(住持)制","phone":"02-24979798","other":"","location":{"lat":25.1333222,"lng":121.8070129}},{"name":"劉春財","god":"福德正神","area":"臺中市","address":"臺中市北屯區大連路一段168-1號","religion":"道教","buildType":"適用監督寺廟條例寺廟","orgType":"管理委員會制","phone":"04-22917906","other":"","location":{"lat":24.1767038,"lng":120.677812}},{"name":"劉坤湧","god":"福德正神","area":"臺中市","address":"臺中市西屯區大河里大河一巷17號","religion":"道教","buildType":"適用監督寺廟條例寺廟","orgType":"管理委員會制","phone":"-0910584579","other":"","location":{"lat":24.174166,"lng":120.653637}},{"name":"陳豐仁","god":"福德正神","area":"臺中市","address":"臺中市豐原區豐南街92巷111弄46之10號","religion":"道教","buildType":"適用監督寺廟條例寺廟","orgType":"管理人(住持)制","phone":"04-25228040","other":"","location":{"lat":24.2362939,"lng":120.715562}},{"name":"黃榮富","god":"福德正神","area":"臺中市","address":"臺中市豐原區水源路68巷42號","religion":"道教","buildType":"適用監督寺廟條例寺廟","orgType":"管理人(住持)制","phone":"04-25236347","other":"","location":{"lat":24.2567145,"lng":120.7441042}},{"name":"莊吉安","god":"福德正神","area":"宜蘭縣","address":"宜蘭縣頭城鎮二城里(二圍段230號)","religion":"道教","buildType":"適用監督寺廟條例寺廟","orgType":"其他","phone":"03-0000000","other":"","location":{"lat":24.8374108,"lng":121.7888175}},{"name":"何合成","god":"福德正神","area":"宜蘭縣","address":"宜蘭縣五結鄉利澤村利成路二段217號","religion":"道教","buildType":"適用監督寺廟條例寺廟","orgType":"管理委員會制","phone":"03-9502651","other":"","location":{"lat":24.6626251,"lng":121.8234297}},{"name":"江龍騰","god":"福德正神","area":"臺中市","address":"臺中市神岡區豐洲里東洲路247巷63號旁","religion":"道教","buildType":"適用監督寺廟條例寺廟","orgType":"管理委員會制","phone":"04-25205623","other":""},{"name":"江范木火","god":"福德正神","area":"新竹縣","address":"新竹縣芎林鄉芎林村15鄰","religion":"道教","buildType":"適用監督寺廟條例寺廟","orgType":"管理委員會制","phone":"03-0000000","other":"","location":{"lat":24.7758587,"lng":121.0786541}},{"name":"劉德豐","god":"福德正神","area":"高雄市","address":"高雄市阿蓮區民族303之1號","religion":"道教","buildType":"適用監督寺廟條例寺廟","orgType":"管理委員會制","phone":"07-6313445","other":"","location":{"lat":22.8858692,"lng":120.3317922}},{"name":"林溪","god":"福德正神","area":"彰化縣","address":"彰化縣花壇鄉中庄村中山路一段123號","religion":"道教","buildType":"適用監督寺廟條例寺廟","orgType":"其他","phone":"04-7862065","other":"","location":{"lat":24.012759,"lng":120.5514163}},{"name":"曾旗光","god":"福德正神","area":"屏東縣","address":"屏東縣新埤鄉新埤村萬興路10號","religion":"道教","buildType":"適用監督寺廟條例寺廟","orgType":"管理人(住持)制","phone":"08-7972463","other":"","location":{"lat":22.4688467,"lng":120.567595}},{"name":"李永成","god":"福德正神","area":"臺中市","address":"臺中市后里區太平里口庄路3號","religion":"道教","buildType":"適用監督寺廟條例寺廟","orgType":"管理人(住持)制","phone":"04-25562373","other":"","location":{"lat":24.3051135,"lng":120.6561444}},{"name":"劉忠義","god":"福德正神","area":"桃園市","address":"桃園市平鎮區正義路北貴里1鄰126號","religion":"道教","buildType":"適用監督寺廟條例寺廟","orgType":"管理委員會制","phone":"03-4594336","other":"","location":{"lat":24.9301815,"lng":121.2242178}},{"name":"陳明朗","god":"福德正神","area":"嘉義縣","address":"嘉義縣水上鄉柳新村4鄰柳新段53號","religion":"道教","buildType":"適用監督寺廟條例寺廟","orgType":"管理人(住持)制","phone":"-","other":""},{"name":"林順傑","god":"福德正神","area":"屏東縣","address":"屏東縣潮州鎮民安路九塊里一鄰","religion":"道教","buildType":"適用監督寺廟條例寺廟","orgType":"管理人(住持)制","phone":"08-0000000","other":"","location":{"lat":22.521878,"lng":120.5537266}},{"name":"陳方桎鋌","god":"福德正神","area":"臺中市","address":"臺中市后里區仁里里圳寮路133巷40號","religion":"道教","buildType":"適用監督寺廟條例寺廟","orgType":"管理人(住持)制","phone":"04-25565758","other":"","location":{"lat":24.3126049,"lng":120.7348176}},{"name":"吳文湖","god":"福德正神","area":"臺中市","address":"臺中市后里區后里里三豐路425-11號","religion":"道教","buildType":"適用監督寺廟條例寺廟","orgType":"管理人(住持)制","phone":"04-25563715","other":"","location":{"lat":24.3141085,"lng":120.7236901}},{"name":"李隆豐","god":"福德正神","area":"新北市","address":"新北市蘆洲區福安里民權路臨70號","religion":"道教","buildType":"適用監督寺廟條例寺廟","orgType":"管理委員會制","phone":"02-22880001","other":"","location":{"lat":25.087351,"lng":121.4749597}},{"name":"張朝漢","god":"福德正神","area":"臺中市","address":"臺中市石岡區金星里8鄰金川巷13-3號","religion":"道教","buildType":"適用監督寺廟條例寺廟","orgType":"管理人(住持)制","phone":"04-25721766","other":"","location":{"lat":24.2727225,"lng":120.7723063}},{"name":"王天從","god":"福德正神","area":"新北市","address":"新北市瑞芳區一坑路297號","religion":"道教","buildType":"適用監督寺廟條例寺廟","orgType":"管理人(住持)制","phone":"-","other":"","location":{"lat":25.108395,"lng":121.8009102}},{"name":"吳大川","god":"福德正神","area":"臺中市","address":"臺中市豐原區中正路281巷5號","religion":"道教","buildType":"適用監督寺廟條例寺廟","orgType":"管理人(住持)制","phone":"04-25224028","other":"","location":{"lat":24.2536691,"lng":120.7225862}},{"name":"潘明德","god":"福德正神","area":"屏東縣","address":"屏東縣林邊鄉子口段159-3號","religion":"道教","buildType":"適用監督寺廟條例寺廟","orgType":"管理人(住持)制","phone":"08-0000000","other":""},{"name":"嚴榮發","god":"福德正神","area":"臺中市","address":"臺中市西屯區福恩里福澤街66號","religion":"道教","buildType":"適用監督寺廟條例寺廟","orgType":"管理委員會制","phone":"04-23583614","other":"","location":{"lat":24.1768496,"lng":120.6131491}},{"name":"張義雄","god":"福德正神","area":"臺中市","address":"臺中市北屯區三光里北屯路240巷20號","religion":"道教","buildType":"適用監督寺廟條例寺廟","orgType":"管理委員會制","phone":"04-22342789","other":"","location":{"lat":24.1696743,"lng":120.6985988}},{"name":"葉萬進","god":"福德正神","area":"彰化縣","address":"彰化縣線西鄉線西路臨188之1號","religion":"道教","buildType":"適用監督寺廟條例寺廟","orgType":"其他","phone":"04-758912","other":"","location":{"lat":24.135569,"lng":120.467944}},{"name":"林仁山","god":"福德正神","area":"雲林縣","address":"雲林縣斗六市梅林路梅林里15鄰四三九號","religion":"道教","buildType":"適用監督寺廟條例寺廟","orgType":"管理委員會制","phone":"05-5572025","other":"","location":{"lat":23.7030383,"lng":120.5967342}},{"name":"莊永志","god":"福德正神","area":"澎湖縣","address":"澎湖縣白沙鄉吉貝村2鄰8-2號","religion":"道教","buildType":"適用監督寺廟條例寺廟","orgType":"管理人(住持)制","phone":"06-9911337","other":"","location":{"lat":23.741101,"lng":119.6141093}},{"name":"歐徐錦秀","god":"福德正神","area":"高雄市","address":"高雄市小港區小港路１４２巷２弄５號","religion":"道教","buildType":"適用監督寺廟條例寺廟","orgType":"管理人(住持)制","phone":"07-8023508","other":"","location":{"lat":22.5659352,"lng":120.341068}},{"name":"朱清景","god":"福德正神","area":"基隆市","address":"基隆市信義區壽山路19巷1號","religion":"道教","buildType":"適用監督寺廟條例寺廟","orgType":"管理人(住持)制","phone":"02-24259220","other":"","location":{"lat":25.1340361,"lng":121.752689}},{"name":"黃文堯","god":"福德正神","area":"彰化縣","address":"彰化縣花壇鄉白沙村彰員路360號","religion":"道教","buildType":"適用監督寺廟條例寺廟","orgType":"其他","phone":"04-7863904","other":"","location":{"lat":24.0485546,"lng":120.5453491}},{"name":"林寶貝","god":"福德正神","area":"新北市","address":"新北市汐止區梓樹里大同路一段111巷20號","religion":"道教","buildType":"適用監督寺廟條例寺廟","orgType":"管理委員會制","phone":"02-26417288","other":""},{"name":"黃嘉祥","god":"福德正神","area":"嘉義縣","address":"嘉義縣中埔鄉中埔村十鄰80-56號","religion":"道教","buildType":"適用監督寺廟條例寺廟","orgType":"管理人(住持)制","phone":"05-2538063","other":"","location":{"lat":23.425139,"lng":120.522952}},{"name":"黃聖雄","god":"福德正神","area":"嘉義市","address":"嘉義市東區朝陽街116號","religion":"道教","buildType":"適用監督寺廟條例寺廟","orgType":"管理委員會制","phone":"05-2776679","other":"","location":{"lat":23.4756955,"lng":120.4581885}},{"name":"陳政寬","god":"福德正神","area":"嘉義市","address":"嘉義市東區公明路華南12鄰139號","religion":"道教","buildType":"適用監督寺廟條例寺廟","orgType":"其他","phone":"05-2232396","other":""},{"name":"吳貦鈍","god":"福德正神","area":"新北市","address":"新北市萬里區溪底里富士坪6號之2","religion":"道教","buildType":"適用監督寺廟條例寺廟","orgType":"管理人(住持)制","phone":"02-24923479","other":"","location":{"lat":25.1574002,"lng":121.6244922}},{"name":"歐國南","god":"福德正神","area":"高雄市","address":"高雄市鳳山區文南街文山里九鄰一二二號","religion":"道教","buildType":"適用監督寺廟條例寺廟","orgType":"管理委員會制","phone":"07-7763976","other":"","location":{"lat":22.6406164,"lng":120.3575961}},{"name":"林文義","god":"福德正神","area":"新北市","address":"新北市瑞芳區逢甲路38之1號","religion":"道教","buildType":"適用監督寺廟條例寺廟","orgType":"管理人(住持)制","phone":"09-20603026","other":"","location":{"lat":25.108407,"lng":121.811203}},{"name":"黃浩一","god":"福德正神","area":"臺中市","address":"臺中市后里區墩北里民生路306-1號","religion":"道教","buildType":"適用監督寺廟條例寺廟","orgType":"管理委員會制","phone":"04-25563618","other":"","location":{"lat":24.3076683,"lng":120.7104671}},{"name":"黃阿森","god":"福德正神","area":"新北市","address":"新北市瑞芳區傑魚坑路262之1號","religion":"道教","buildType":"適用監督寺廟條例寺廟","orgType":"管理人(住持)制","phone":"02-24978595","other":"","location":{"lat":25.1068159,"lng":121.7874027}},{"name":"許萬富","god":"福德正神","area":"新北市","address":"新北市瑞芳區龍安里瑞芳街4號","religion":"道教","buildType":"適用監督寺廟條例寺廟","orgType":"管理人(住持)制","phone":"04-24977704","other":"","location":{"lat":25.1099404,"lng":121.806708}},{"name":"張再清","god":"福德正神","area":"新北市","address":"新北市瑞芳區深澳里深澳路67之1號","religion":"道教","buildType":"適用監督寺廟條例寺廟","orgType":"管理委員會制","phone":"09-32074014","other":"","location":{"lat":25.1286383,"lng":121.8163283}},{"name":"林秋德","god":"福德正神","area":"雲林縣","address":"雲林縣東勢鄉同安路同安村90之2號","religion":"道教","buildType":"適用監督寺廟條例寺廟","orgType":"管理委員會制","phone":"05-6992799","other":"","location":{"lat":23.7041993,"lng":120.265256}},{"name":"林文義","god":"福德正神","area":"新北市","address":"新北市瑞芳區龍鎮里岳王路68之1號旁","religion":"道教","buildType":"適用監督寺廟條例寺廟","orgType":"管理人(住持)制","phone":"032-974012","other":""},{"name":"楊建一","god":"福德正神","area":"彰化縣","address":"彰化縣田中鎮長順街西路里93號","religion":"道教","buildType":"適用監督寺廟條例寺廟","orgType":"其他","phone":"04-8751323","other":"","location":{"lat":23.8636558,"lng":120.5807424}},{"name":"姜尾鳳","god":"福德正神","area":"桃園市","address":"桃園市平鎮區圳南路東社里十一鄰十八巷2之1號","religion":"道教","buildType":"適用監督寺廟條例寺廟","orgType":"管理委員會制","phone":"03-4501106","other":"","location":{"lat":24.9244439,"lng":121.24365}},{"name":"簡藤松","god":"福德正神","area":"宜蘭縣","address":"宜蘭縣五結鄉鎮安村舊街路67號","religion":"道教","buildType":"適用監督寺廟條例寺廟","orgType":"管理委員會制","phone":"03-9650468","other":"","location":{"lat":24.709778,"lng":121.768676}},{"name":"溫德榮","god":"福德正神","area":"雲林縣","address":"雲林縣斗六市北環路榴中里九之六號","religion":"道教","buildType":"適用監督寺廟條例寺廟","orgType":"管理委員會制","phone":"05-5573697","other":"","location":{"lat":23.7249655,"lng":120.5812492}},{"name":"蘇益來","god":"福德正神","area":"新北市","address":"新北市瑞芳區柑坪里明燈路1段84號前","religion":"道教","buildType":"適用監督寺廟條例寺廟","orgType":"管理委員會制","phone":"02-24969135","other":""},{"name":"顏富郎","god":"福德正神","area":"臺中市","address":"臺中市東區忠孝路372號","religion":"道教","buildType":"適用監督寺廟條例寺廟","orgType":"管理委員會制","phone":"04-22806024","other":"","location":{"lat":24.1325112,"lng":120.6891453}},{"name":"劉振興","god":"福德正神","area":"臺中市","address":"臺中市后里區眉山里甲后路934-1號","religion":"道教","buildType":"適用監督寺廟條例寺廟","orgType":"管理委員會制","phone":"-0928305617","other":"","location":{"lat":24.313974,"lng":120.6918691}},{"name":"蔡榮昇","god":"福德正神","area":"臺中市","address":"臺中市后里區墩東里文明路23-1號","religion":"道教","buildType":"適用監督寺廟條例寺廟","orgType":"管理委員會制","phone":"04-25574473","other":"","location":{"lat":24.3062085,"lng":120.7215005}},{"name":"黃榮宗","god":"福德正神","area":"臺中市","address":"臺中市北屯區松竹里松竹路2段460號","religion":"道教","buildType":"適用監督寺廟條例寺廟","orgType":"管理委員會制","phone":"04-22474511","other":"","location":{"lat":24.1816772,"lng":120.6876757}},{"name":"阮照雄","god":"福德正神","area":"臺北市","address":"臺北市大安區安東街誠安里32號","religion":"道教","buildType":"適用監督寺廟條例寺廟","orgType":"其他","phone":"02-27715335","other":"","location":{"lat":25.0441115,"lng":121.5424993}},{"name":"劉第湖","god":"福德正神","area":"臺中市","address":"臺中市石岡區和盛里豐勢路2巷34號","religion":"道教","buildType":"適用監督寺廟條例寺廟","orgType":"管理人(住持)制","phone":"04-25816481","other":"","location":{"lat":24.2603041,"lng":120.816188}},{"name":"林光明","god":"福德正神","area":"新北市","address":"新北市瑞芳區東和里中山路266號旁","religion":"道教","buildType":"適用監督寺廟條例寺廟","orgType":"管理委員會制","phone":"02-24978490","other":""},{"name":"歐桂鋆","god":"福德正神","area":"臺中市","address":"臺中市后里區后里里三豐路269巷2號","religion":"道教","buildType":"適用監督寺廟條例寺廟","orgType":"管理人(住持)制","phone":"04-25562818","other":"","location":{"lat":24.3079679,"lng":120.7214707}},{"name":"陳秋南","god":"福德正神","area":"臺北市","address":"臺北市大安區光復南路通化里698號","religion":"道教","buildType":"適用監督寺廟條例寺廟","orgType":"管理委員會制","phone":"02-27014369、23252301","other":"","location":{"lat":25.0297093,"lng":121.5571721}},{"name":"蕭金水","god":"福德正神","area":"臺北市","address":"臺北市大安區延吉街光信里 263號","religion":"道教","buildType":"適用監督寺廟條例寺廟","orgType":"管理委員會制","phone":"02-27037651","other":"","location":{"lat":25.0339961,"lng":121.5570086}},{"name":"王俊雄","god":"福德正神","area":"花蓮縣","address":"花蓮縣玉里鎮中華路大禹里興國路口","religion":"道教","buildType":"適用監督寺廟條例寺廟","orgType":"管理委員會制","phone":"03-8882533","other":""},{"name":"廖海忠","god":"福德正神","area":"雲林縣","address":"雲林縣西螺鎮鹿場三塊厝段小段一一一○地號","religion":"道教","buildType":"適用監督寺廟條例寺廟","orgType":"管理委員會制","phone":"05-5842092","other":""},{"name":"方正隆","god":"福德正神","area":"高雄市","address":"高雄市楠梓區廣昌街１４３號","religion":"佛教","buildType":"適用監督寺廟條例寺廟","orgType":"管理委員會制","phone":"07-3616824","other":"","location":{"lat":22.7081522,"lng":120.2862431}},{"name":"王三福","god":"福德正神","area":"新北市","address":"新北市汐止區康寧街89號","religion":"道教","buildType":"適用監督寺廟條例寺廟","orgType":"管理人(住持)制","phone":"02-26417256","other":"","location":{"lat":25.0665968,"lng":121.6200846}},{"name":"黃永壽","god":"福德正神","area":"新北市","address":"新北市汐止區長江街1號對面(暫厝)","religion":"道教","buildType":"適用監督寺廟條例寺廟","orgType":"管理人(住持)制","phone":"-","other":""},{"name":"陳厚全","god":"福德正神","area":"嘉義縣","address":"嘉義縣竹崎鄉中山路竹崎村三鄰五十三之一號","religion":"道教","buildType":"適用監督寺廟條例寺廟","orgType":"管理人(住持)制","phone":"05-0000000","other":"","location":{"lat":23.523317,"lng":120.5510386}},{"name":"李炎能","god":"福德正神","area":"屏東縣","address":"屏東縣萬丹鄉水泉村1之1號","religion":"道教","buildType":"適用監督寺廟條例寺廟","orgType":"管理人(住持)制","phone":"08-0000000","other":"","location":{"lat":22.584087,"lng":120.488939}},{"name":"黃樹興","god":"福德正神","area":"屏東縣","address":"屏東縣內埔鄉東寧路東寧村458號","religion":"道教","buildType":"適用監督寺廟條例寺廟","orgType":"管理人(住持)制","phone":"08-7792447","other":"","location":{"lat":22.619213,"lng":120.5608804}},{"name":"蘇添盛","god":"福德正神","area":"新北市","address":"新北市汐止區長安里長安路62號之1","religion":"道教","buildType":"適用監督寺廟條例寺廟","orgType":"管理人(住持)制","phone":"09-35921358","other":"","location":{"lat":25.078325,"lng":121.668953}},{"name":"呂金郎","god":"福德正神","area":"新北市","address":"新北市汐止區茄苳路25號後方100公尺處","religion":"道教","buildType":"適用監督寺廟條例寺廟","orgType":"管理人(住持)制","phone":"02-86488948","other":""},{"name":"劉鐘聖","god":"福德正神","area":"臺中市","address":"臺中市南屯區中和巷39之6號","religion":"道教","buildType":"適用監督寺廟條例寺廟","orgType":"管理委員會制","phone":"04-24795566","other":"","location":{"lat":24.1159611,"lng":120.6239329}},{"name":"劉阿萬","god":"福德正神","area":"苗栗縣","address":"苗栗縣苑裡鎮田心里","religion":"道教","buildType":"適用監督寺廟條例寺廟","orgType":"其他","phone":"037-865951","other":"","location":{"lat":24.4157074,"lng":120.6631289}},{"name":"邱美雪","god":"福德正神","area":"臺中市","address":"臺中市大甲區中山里水源路351號","religion":"道教","buildType":"適用監督寺廟條例寺廟","orgType":"管理人(住持)制","phone":"04-26863986","other":"","location":{"lat":24.3445745,"lng":120.6292897}},{"name":"何茂進","god":"福德正神","area":"臺中市","address":"臺中市西屯區何厝里甘州街52號","religion":"道教","buildType":"適用監督寺廟條例寺廟","orgType":"管理委員會制","phone":"04-23149139","other":"","location":{"lat":24.1638207,"lng":120.6574973}},{"name":"詹田","god":"福德正神","area":"新北市","address":"新北市汐止區復興里水源路一段71號","religion":"道教","buildType":"適用監督寺廟條例寺廟","orgType":"管理委員會制","phone":"02-26426964","other":"","location":{"lat":25.064763,"lng":121.657232}},{"name":"陳清榮","god":"福德正神","area":"新北市","address":"新北市汐止區南興路83巷15號","religion":"道教","buildType":"適用監督寺廟條例寺廟","orgType":"管理人(住持)制","phone":"02-26415470","other":"","location":{"lat":25.0634324,"lng":121.6517805}},{"name":"鄭溪河","god":"福德正神","area":"臺中市","address":"臺中市烏日區中華路九德里626號","religion":"道教","buildType":"適用監督寺廟條例寺廟","orgType":"管理委員會制","phone":"04-23379834","other":"","location":{"lat":24.107082,"lng":120.6339858}},{"name":"王金城","god":"土地公","area":"基隆市","address":"基隆市中山區太白街111巷1號","religion":"道教","buildType":"適用監督寺廟條例寺廟","orgType":"管理人(住持)制","phone":"02-24241880","other":"","location":{"lat":25.1485076,"lng":121.7443566}},{"name":"施銘堯","god":"福德正神","area":"新北市","address":"新北市五股區興珍里中興路一段151巷4號","religion":"道教","buildType":"適用監督寺廟條例寺廟","orgType":"管理委員會制","phone":"02-29887412","other":"","location":{"lat":25.0727773,"lng":121.4661077}},{"name":"劉衡松","god":"福德正神","area":"臺中市","address":"臺中市東勢區聚福街35號","religion":"道教","buildType":"適用監督寺廟條例寺廟","orgType":"管理人(住持)制","phone":"04-25880878","other":"","location":{"lat":24.2517028,"lng":120.8367339}},{"name":"林礽勝","god":"福德正神","area":"新竹縣","address":"新竹縣新埔鎮第一市場新埔里和平街","religion":"道教","buildType":"適用監督寺廟條例寺廟","orgType":"管理人(住持)制","phone":"03-5882220","other":""},{"name":"劉裕華","god":"福德正神","area":"嘉義市","address":"嘉義市東區中央里公明路255號之1","religion":"道教","buildType":"適用監督寺廟條例寺廟","orgType":"管理委員會制","phone":"05-2223109","other":"","location":{"lat":23.4797868,"lng":120.4524333}},{"name":"高松益","god":"福德正神","area":"南投縣","address":"南投縣埔里鎮南安路同聲里115號","religion":"道教","buildType":"適用監督寺廟條例寺廟","orgType":"管理委員會制","phone":"049-2421035","other":"","location":{"lat":23.9584732,"lng":120.9671621}},{"name":"郭錦清","god":"土地公","area":"臺中市","address":"臺中市霧峰區北勢里北豐路260號","religion":"道教","buildType":"適用監督寺廟條例寺廟","orgType":"管理人(住持)制","phone":"04-23391854","other":"","location":{"lat":24.041926,"lng":120.6637576}},{"name":"詹春長","god":"福德正神","area":"基隆市","address":"基隆市七堵區華新二路122之1號旁","religion":"道教","buildType":"適用監督寺廟條例寺廟","orgType":"管理委員會制","phone":"02-24515632","other":""},{"name":"蕭愛圓","god":"福德正神","area":"桃園市","address":"桃園市桃園區上海路龍崗里226-1號","religion":"道教","buildType":"適用監督寺廟條例寺廟","orgType":"管理委員會制","phone":"03-3797236","other":"","location":{"lat":24.9879173,"lng":121.2838041}},{"name":"林茂哲","god":"福德正神","area":"新北市","address":"新北市鶯歌區永吉里18鄰鶯桃路206巷24弄27號旁","religion":"道教","buildType":"適用監督寺廟條例寺廟","orgType":"管理委員會制","phone":"02-26705638","other":""},{"name":"劉文龍","god":"福德正神","area":"雲林縣","address":"雲林縣斗六市光明路溝壩里一○○號","religion":"道教","buildType":"適用監督寺廟條例寺廟","orgType":"管理委員會制","phone":"05-5220618","other":"","location":{"lat":23.6741786,"lng":120.5374728}},{"name":"孫茂財","god":"福德正神","area":"嘉義市","address":"嘉義市東區北門里吳鳳北路431號","religion":"道教","buildType":"適用監督寺廟條例寺廟","orgType":"管理委員會制","phone":"05-2786361","other":"","location":{"lat":23.4854677,"lng":120.4521574}},{"name":"李德仁","god":"福德正神","area":"高雄市","address":"高雄市阿蓮區石安里 215-1號","religion":"道教","buildType":"適用監督寺廟條例寺廟","orgType":"管理人(住持)制","phone":"07-6310102","other":"","location":{"lat":22.8939163,"lng":120.3098929}},{"name":"范賢妹","god":"福德正神","area":"新竹縣","address":"新竹縣新豐鄉福興村7鄰43號","religion":"道教","buildType":"適用監督寺廟條例寺廟","orgType":"其他","phone":"03-5993949","other":"","location":{"lat":24.936529,"lng":121.03482}},{"name":"葉金秋","god":"福德正神","area":"臺中市","address":"臺中市大甲區日南里青一路1巷2號","religion":"道教","buildType":"適用監督寺廟條例寺廟","orgType":"管理人(住持)制","phone":"092-3576061","other":"","location":{"lat":24.4042303,"lng":120.6425663}},{"name":"劉得金","god":"福德正神","area":"南投縣","address":"南投縣竹山鎮中和里枋坪巷85之6號","religion":"道教","buildType":"適用監督寺廟條例寺廟","orgType":"管理委員會制","phone":"049-2657843","other":"","location":{"lat":23.7599447,"lng":120.6826027}},{"name":"溫萬吉","god":"福德正神","area":"新竹市","address":"新竹市西雅里15鄰中和路109號","religion":"道教","buildType":"適用監督寺廟條例寺廟","orgType":"其他","phone":"03-5245181","other":"","location":{"lat":24.8018103,"lng":120.9551858}},{"name":"陳信雄","god":"福德正神","area":"嘉義縣","address":"嘉義縣新港鄉福德路福德村7鄰94號","religion":"道教","buildType":"適用監督寺廟條例寺廟","orgType":"管理委員會制","phone":"05-3742142","other":"","location":{"lat":23.5569601,"lng":120.3437714}},{"name":"陳連生","god":"福德正神","area":"臺中市","address":"臺中市大雅區橫山里振興路188之1號","religion":"道教","buildType":"適用監督寺廟條例寺廟","orgType":"管理人(住持)制","phone":"04-25666886","other":"","location":{"lat":24.2086815,"lng":120.636313}},{"name":"陸宜芳","god":"福德正神","area":"新北市","address":"新北市金山區西湖村1鄰13號旁","religion":"道教","buildType":"適用監督寺廟條例寺廟","orgType":"管理人(住持)制","phone":"-","other":""},{"name":"何正雄","god":"福德正神","area":"嘉義縣","address":"嘉義縣竹崎鄉坑仔坪和平村六鄰七十九之一號","religion":"道教","buildType":"適用監督寺廟條例寺廟","orgType":"管理委員會制","phone":"05-0000000","other":"","location":{"lat":23.547737,"lng":120.577285}},{"name":"黃聯","god":"福德正神","area":"屏東縣","address":"屏東縣萬丹鄉廈南村安和路246號","religion":"道教","buildType":"適用監督寺廟條例寺廟","orgType":"管理人(住持)制","phone":"08-0000000","other":"","location":{"lat":22.5943758,"lng":120.4610071}},{"name":"陳錦順","god":"福德正神","area":"新北市","address":"新北市汐止區白雲里水源路二段34號對面","religion":"道教","buildType":"適用監督寺廟條例寺廟","orgType":"管理人(住持)制","phone":"02-26421023","other":""},{"name":"陳玉山","god":"福德正神","area":"臺中市","address":"臺中市南屯區干城街黎明里202巷1弄1號","religion":"道教","buildType":"適用監督寺廟條例寺廟","orgType":"管理委員會制","phone":"04-22544197","other":"","location":{"lat":24.15267,"lng":120.633529}},{"name":"李福榮","god":"福德正神","area":"新北市","address":"新北市汐止區中正路214號","religion":"道教","buildType":"適用監督寺廟條例寺廟","orgType":"管理人(住持)制","phone":"02-26413338.0912201728","other":"","location":{"lat":25.0689455,"lng":121.6583787}},{"name":"江振山","god":"福德正神","area":"嘉義市","address":"嘉義市東區圳頭里盧厝160號之16之1","religion":"道教","buildType":"適用監督寺廟條例寺廟","orgType":"管理委員會制","phone":"05-2768737","other":"","location":{"lat":23.486539,"lng":120.48331}},{"name":"何信橋","god":"福德正神","area":"新竹縣","address":"新竹縣芎林鄉上山村文山路1205號","religion":"道教","buildType":"適用監督寺廟條例寺廟","orgType":"管理委員會制","phone":"03-5922260","other":"","location":{"lat":24.7905751,"lng":121.0644884}},{"name":"林逸雄","god":"福德正神","area":"新竹縣","address":"新竹縣芎林鄉文昌街文林村4鄰35-1號","religion":"道教","buildType":"適用監督寺廟條例寺廟","orgType":"管理人(住持)制","phone":"03-5923050","other":"","location":{"lat":24.772908,"lng":121.082696}},{"name":"劉萬法","god":"福德正神","area":"高雄市","address":"高雄市彌陀區舊港里舊港路西二巷32號","religion":"道教","buildType":"適用監督寺廟條例寺廟","orgType":"管理人(住持)制","phone":"07-6196919","other":""},{"name":"林瑞文","god":"福德正神","area":"臺中市","address":"臺中市潭子區嘉仁里仁愛路２段44號","religion":"道教","buildType":"適用監督寺廟條例寺廟","orgType":"管理人(住持)制","phone":"04-25371990","other":"","location":{"lat":24.2170028,"lng":120.7137372}},{"name":"洪有信","god":"土地公","area":"澎湖縣","address":"澎湖縣湖西鄉城北村2-3號","religion":"道教","buildType":"適用監督寺廟條例寺廟","orgType":"管理人(住持)制","phone":"06-9210866","other":"","location":{"lat":23.5632255,"lng":119.6194898}},{"name":"林土松","god":"福德正神","area":"臺南市","address":"臺南市白河區玉豐里11鄰106-1號","religion":"道教","buildType":"適用監督寺廟條例寺廟","orgType":"管理人(住持)制","phone":"06-6855338","other":"","location":{"lat":23.3797822,"lng":120.4184782}},{"name":"陳義隆","god":"福德正神","area":"基隆市","address":"基隆市暖暖區水源路第4鄰36巷37之1號","religion":"道教","buildType":"適用監督寺廟條例寺廟","orgType":"管理委員會制","phone":"02-24573373","other":""},{"name":"張銘義","god":"福德正神","area":"新北市","address":"新北市烏來區溫泉街1號之1","religion":"道教","buildType":"適用監督寺廟條例寺廟","orgType":"管理委員會制","phone":"02-26616526","other":"","location":{"lat":24.864921,"lng":121.5497304}},{"name":"彭新省","god":"福德正神","area":"嘉義市","address":"嘉義市東區宣信里宣信街452號","religion":"道教","buildType":"適用監督寺廟條例寺廟","orgType":"其他","phone":"05-2278409","other":"","location":{"lat":23.4735389,"lng":120.4566451}},{"name":"翁等賓","god":"福德正神","area":"新北市","address":"新北市萬里區溪底里香員林17號後方","religion":"道教","buildType":"適用監督寺廟條例寺廟","orgType":"管理人(住持)制","phone":"02-24925847","other":""},{"name":"林繼業(暫代)","god":"福德正神","area":"基隆市","address":"基隆市暖暖區過港路過港里11鄰181之1號","religion":"道教","buildType":"適用監督寺廟條例寺廟","orgType":"管理人(住持)制","phone":"02-24572860","other":"","location":{"lat":25.1054408,"lng":121.7367201}},{"name":"李繼承","god":"福德正神","area":"屏東縣","address":"屏東縣新園鄉瓦磘村下瓦路1-12號","religion":"道教","buildType":"適用監督寺廟條例寺廟","orgType":"管理委員會制","phone":"08-0000000","other":"","location":{"lat":22.55069,"lng":120.473749}},{"name":"王國棟","god":"福德正神","area":"屏東縣","address":"屏東縣新園鄉五房路五房村220號","religion":"道教","buildType":"適用監督寺廟條例寺廟","orgType":"管理委員會制","phone":"08-0000000","other":"","location":{"lat":22.4992012,"lng":120.4373931}},{"name":"余正南","god":"福德正神","area":"基隆市","address":"基隆市中正區八斗街122之1號","religion":"道教","buildType":"其他","orgType":"管理委員會制","phone":"02-24692614","other":"","location":{"lat":25.1433826,"lng":121.7966352}},{"name":"洪武雄","god":"土地公","area":"臺中市","address":"臺中市太平區長龍路１段513號","religion":"道教","buildType":"適用監督寺廟條例寺廟","orgType":"管理委員會制","phone":"04-22703806","other":"","location":{"lat":24.1260342,"lng":120.7482514}},{"name":"蕭清波","god":"福德正神","area":"新北市","address":"新北市坪林區上德里3鄰林梅嶺11號旁","religion":"道教","buildType":"適用監督寺廟條例寺廟","orgType":"管理人(住持)制","phone":"02-26656523","other":""},{"name":"楊進才","god":"福德正神","area":"屏東縣","address":"屏東縣內埔鄉黎明村西淇路45號","religion":"道教","buildType":"適用監督寺廟條例寺廟","orgType":"管理人(住持)制","phone":"-","other":"","location":{"lat":22.6871723,"lng":120.6005451}},{"name":"詹鎮鈴","god":"福德正神","area":"彰化縣","address":"彰化縣永靖鄉新莊村永社路73巷2號","religion":"道教","buildType":"適用監督寺廟條例寺廟","orgType":"管理委員會制","phone":"04-8233456","other":"","location":{"lat":23.9028491,"lng":120.5590618}},{"name":"林文樹","god":"福德正神","area":"宜蘭縣","address":"宜蘭縣五結鄉利澤村利澤西路五股圳旁","religion":"道教","buildType":"適用監督寺廟條例寺廟","orgType":"管理委員會制","phone":"03-9501622","other":"","location":{"lat":24.6664312,"lng":121.8231652}},{"name":"何林秋香","god":"福德正神","area":"新竹縣","address":"新竹縣竹北市福德街竹義里19號","religion":"道教","buildType":"適用監督寺廟條例寺廟","orgType":"其他","phone":"03-5517738","other":"","location":{"lat":24.8357565,"lng":121.0090606}},{"name":"林庭水","god":"福德正神","area":"臺北市","address":"臺北市大同區雙連街雙連里37號","religion":"道教","buildType":"適用監督寺廟條例寺廟","orgType":"其他","phone":"02-25536831","other":"","location":{"lat":25.0587634,"lng":121.5190819}},{"name":"林家淵","god":"福德正神","area":"新北市","address":"新北市萬里區龜吼里鼓亭路11號之1","religion":"道教","buildType":"適用監督寺廟條例寺廟","orgType":"管理委員會制","phone":"02-24921927","other":"","location":{"lat":25.190177,"lng":121.683786}},{"name":"江本平","god":"福德正神","area":"新北市","address":"新北市瑞芳區永慶里崙頂路2號","religion":"道教","buildType":"適用監督寺廟條例寺廟","orgType":"管理委員會制","phone":"02-24960303","other":"","location":{"lat":25.1068106,"lng":121.8465804}},{"name":"廖風淡","god":"福德正神","area":"雲林縣","address":"雲林縣西螺鎮頂湳段一○四九之一號","religion":"道教","buildType":"適用監督寺廟條例寺廟","orgType":"管理委員會制","phone":"05-5860381","other":""},{"name":"周石田","god":"福德正神","area":"新北市","address":"新北市汐止區智慧里大同路2段169巷40號之1","religion":"道教","buildType":"適用監督寺廟條例寺廟","orgType":"管理委員會制","phone":"02-26437744","other":"","location":{"lat":25.0652328,"lng":121.6505834}},{"name":"李金量","god":"福德正神","area":"新北市","address":"新北市鶯歌區二橋里中正三路450號前","religion":"道教","buildType":"適用監督寺廟條例寺廟","orgType":"管理委員會制","phone":"02-86772645","other":"","location":{"lat":24.9410772,"lng":121.3377567}},{"name":"楊山本","god":"福德正神","area":"臺中市","address":"臺中市大雅區西寶里中正路194之1號","religion":"道教","buildType":"適用監督寺廟條例寺廟","orgType":"管理人(住持)制","phone":"04-25332811","other":"","location":{"lat":24.24974,"lng":120.707993}},{"name":"黃文岳","god":"福德正神","area":"屏東縣","address":"屏東縣內埔鄉上樹村第1鄰","religion":"道教","buildType":"適用監督寺廟條例寺廟","orgType":"管理人(住持)制","phone":"08-0000000","other":""},{"name":"劉水林","god":"福德正神","area":"高雄市","address":"高雄市林園區鳳林路三段276號","religion":"道教","buildType":"適用監督寺廟條例寺廟","orgType":"管理人(住持)制","phone":"07-6412501","other":"","location":{"lat":22.5214188,"lng":120.3968829}},{"name":"楊山本","god":"福德正神","area":"臺中市","address":"臺中市大雅區西寶里西村路7之2號","religion":"道教","buildType":"適用監督寺廟條例寺廟","orgType":"管理人(住持)制","phone":"04-25332811","other":"","location":{"lat":24.20545,"lng":120.6663211}},{"name":"陳天賜","god":"福德正神","area":"屏東縣","address":"屏東縣萬丹鄉灣內段962號","religion":"道教","buildType":"適用監督寺廟條例寺廟","orgType":"管理人(住持)制","phone":"08-0000000","other":"","location":{"lat":22.5937448,"lng":120.4889132}},{"name":"廖連成","god":"福德正神","area":"臺中市","address":"臺中市大雅區四德里學府路90號","religion":"道教","buildType":"適用監督寺廟條例寺廟","orgType":"管理委員會制","phone":"04-25661769","other":"","location":{"lat":24.2188159,"lng":120.6505654}},{"name":"彰化市公所","god":"福德正神","area":"彰化縣","address":"彰化縣彰化市民生路212號","religion":"道教","buildType":"其他","orgType":"管理委員會制","phone":"04-7222141","other":"","location":{"lat":24.0797409,"lng":120.542945}},{"name":"邱清男","god":"福德正神","area":"彰化縣","address":"彰化縣和美鎮南軒路大霞里123號鄰邊","religion":"道教","buildType":"適用監督寺廟條例寺廟","orgType":"其他","phone":"04-7554439","other":""},{"name":"陳晉杉","god":"福德正神","area":"苗栗縣","address":"苗栗縣苑裡鎮社苓里","religion":"道教","buildType":"適用監督寺廟條例寺廟","orgType":"其他","phone":"037-743032","other":"","location":{"lat":24.4077958,"lng":120.6746303}},{"name":"羅瑞旺","god":"福德正神","area":"臺中市","address":"臺中市豐原區仁洲街42巷","religion":"道教","buildType":"適用監督寺廟條例寺廟","orgType":"管理人(住持)制","phone":"04-25242328","other":"","location":{"lat":24.2585947,"lng":120.7153376}},{"name":"周進盛","god":"福德正神","area":"臺中市","address":"臺中市豐原區翁社里豐年路91巷75之1號","religion":"道教","buildType":"適用監督寺廟條例寺廟","orgType":"管理人(住持)制","phone":"04-25227054","other":"","location":{"lat":24.26482,"lng":120.741349}},{"name":"林棟樑","god":"福德正神","area":"宜蘭縣","address":"宜蘭縣頭城鎮武營路武營里145之1號","religion":"道教","buildType":"適用監督寺廟條例寺廟","orgType":"其他","phone":"03-9774600","other":"","location":{"lat":24.8657509,"lng":121.8280659}},{"name":"黃振裕","god":"福德正神","area":"臺中市","address":"臺中市沙鹿區鹿寮里中山路安利巷三○號","religion":"道教","buildType":"適用監督寺廟條例寺廟","orgType":"管理人(住持)制","phone":"04-26628471","other":""},{"name":"王溪東","god":"土地公","area":"臺南市","address":"臺南市東山區東中里新東路一段1號","religion":"道教","buildType":"適用監督寺廟條例寺廟","orgType":"其他","phone":"06-6800285","other":"","location":{"lat":23.3222932,"lng":120.4016153}},{"name":"游文龍","god":"福德正神","area":"新北市","address":"新北市瑞芳區深澳里深澳路197之3號","religion":"道教","buildType":"適用監督寺廟條例寺廟","orgType":"管理委員會制","phone":"02-24974575","other":"","location":{"lat":25.1339213,"lng":121.81983}},{"name":"林彥彣","god":"土地公","area":"嘉義縣","address":"嘉義縣水上鄉忠孝街民生村1鄰1之1號","religion":"道教","buildType":"適用監督寺廟條例寺廟","orgType":"管理委員會制","phone":"05-2836998","other":"","location":{"lat":23.444828,"lng":120.435035}},{"name":"林正和","god":"福德正神","area":"臺中市","address":"臺中市后里區廣福里內東路99號","religion":"道教","buildType":"適用監督寺廟條例寺廟","orgType":"管理委員會制","phone":"04-25562373","other":"","location":{"lat":24.3048349,"lng":120.7314906}},{"name":"王信雄","god":"福德正神","area":"臺中市","address":"臺中市西區公正路210巷1號","religion":"道教","buildType":"適用監督寺廟條例寺廟","orgType":"其他","phone":"04-23019796","other":"","location":{"lat":24.149176,"lng":120.658702}},{"name":"曹慶松","god":"福德正神","area":"臺中市","address":"臺中市后里區月眉里雲頭路45-1號","religion":"道教","buildType":"適用監督寺廟條例寺廟","orgType":"管理委員會制","phone":"04-25560225","other":"","location":{"lat":24.318187,"lng":120.698501}},{"name":"郭喜郎","god":"福德正神","area":"苗栗縣","address":"苗栗縣苑裡鎮客庄里2鄰5號","religion":"道教","buildType":"適用監督寺廟條例寺廟","orgType":"其他","phone":"037-862477","other":"","location":{"lat":24.4373554,"lng":120.6559401}},{"name":"陳省三","god":"福德正神","area":"屏東縣","address":"屏東縣內埔鄉龍崗路豐田村","religion":"道教","buildType":"適用監督寺廟條例寺廟","orgType":"管理人(住持)制","phone":"08-0000000","other":"","location":{"lat":22.6378773,"lng":120.5581263}},{"name":"邱添潤","god":"福德正神","area":"高雄市","address":"高雄市美濃區合和里中正路一段167巷1號","religion":"道教","buildType":"適用監督寺廟條例寺廟","orgType":"管理人(住持)制","phone":"07-6812722","other":"","location":{"lat":22.8964328,"lng":120.5438471}},{"name":"陳政昌","god":"福德正神","area":"南投縣","address":"南投縣埔里鎮明德路北安里3鄰186號","religion":"道教","buildType":"適用監督寺廟條例寺廟","orgType":"管理委員會制","phone":"049-2993401","other":""},{"name":"曾東本","god":"福德正神","area":"嘉義市","address":"嘉義市東區盧厝里盧義路490巷50附1號","religion":"道教","buildType":"適用監督寺廟條例寺廟","orgType":"管理委員會制","phone":"05-2771410","other":""},{"name":"白建富","god":"福德正神","area":"基隆市","address":"基隆市暖暖區東勢街101之3號","religion":"道教","buildType":"適用監督寺廟條例寺廟","orgType":"管理人(住持)制","phone":"02-24587587","other":"","location":{"lat":25.0797567,"lng":121.7519834}},{"name":"李金海","god":"福德正神","area":"臺中市","address":"臺中市豐原區中陽路537巷內","religion":"道教","buildType":"適用監督寺廟條例寺廟","orgType":"管理人(住持)制","phone":"-","other":"","location":{"lat":24.2498809,"lng":120.7353915}},{"name":"張國祥","god":"福德正神","area":"臺中市","address":"臺中市豐原區南陽路123巷28號","religion":"道教","buildType":"適用監督寺廟條例寺廟","orgType":"管理人(住持)制","phone":"04-25246869","other":"","location":{"lat":24.242102,"lng":120.730049}},{"name":"鄭茂男","god":"福德正神","area":"臺中市","address":"臺中市豐原區三和路64巷1號","religion":"道教","buildType":"適用監督寺廟條例寺廟","orgType":"管理人(住持)制","phone":"04-25234106","other":"","location":{"lat":24.2392966,"lng":120.7080842}},{"name":"鄭金木","god":"福德正神","area":"宜蘭縣","address":"宜蘭縣頭城鎮濱海更新里濱海路三段88號旁","religion":"道教","buildType":"適用監督寺廟條例寺廟","orgType":"其他","phone":"03-9771244","other":"","location":{"lat":24.9051643,"lng":121.8695945}},{"name":"陳松宏","god":"福德正神","area":"高雄市","address":"高雄市鳥松區鳥松里文前34號","religion":"道教","buildType":"適用監督寺廟條例寺廟","orgType":"管理委員會制","phone":"07-7319350","other":"","location":{"lat":22.6625678,"lng":120.362747}},{"name":"蘇瑞棟","god":"福德正神","area":"臺中市","address":"臺中市潭子區福仁里新興一段187號","religion":"道教","buildType":"適用監督寺廟條例寺廟","orgType":"其他","phone":"04-2536062","other":"","location":{"lat":24.2044851,"lng":120.7097983}},{"name":"郭榮華","god":"福德正神","area":"臺北市","address":"臺北市中山區中山北路４段劍潭里67號","religion":"道教","buildType":"適用監督寺廟條例寺廟","orgType":"管理委員會制","phone":"02-25925144","other":"","location":{"lat":25.0804957,"lng":121.5245557}},{"name":"林昭卿","god":"福德正神","area":"臺北市","address":"臺北市中山區龍江路力行里55巷21號","religion":"道教","buildType":"適用監督寺廟條例寺廟","orgType":"其他","phone":"02-27215792","other":"","location":{"lat":25.0477621,"lng":121.5403957}},{"name":"陳福來","god":"福德正神","area":"基隆市","address":"基隆市中正區環港街84號3樓","religion":"道教","buildType":"適用監督寺廟條例寺廟","orgType":"管理委員會制","phone":"02-24692364","other":"","location":{"lat":25.140826,"lng":121.7927918}},{"name":"陳世宏","god":"福德正神","area":"屏東縣","address":"屏東縣新園鄉光復路共和村195-3號","religion":"道教","buildType":"適用監督寺廟條例寺廟","orgType":"管理委員會制","phone":"08-8328756","other":"","location":{"lat":22.4763881,"lng":120.4402295}},{"name":"鄭清在","god":"福德正神","area":"屏東縣","address":"屏東縣南州鄉萬華路萬華村69號","religion":"道教","buildType":"適用監督寺廟條例寺廟","orgType":"管理委員會制","phone":"08-8642556","other":"","location":{"lat":22.4667842,"lng":120.5035994}},{"name":"楊振源","god":"福德正神","area":"基隆市","address":"基隆市中山區復興路228之1號","religion":"道教","buildType":"適用監督寺廟條例寺廟","orgType":"管理委員會制","phone":"02-24377659","other":"","location":{"lat":25.146695,"lng":121.726321}},{"name":"黃富貴","god":"土地公","area":"新北市","address":"新北市汐止區南陽街91巷38弄5號","religion":"道教","buildType":"適用監督寺廟條例寺廟","orgType":"管理委員會制","phone":"02-29641552","other":"","location":{"lat":25.0605094,"lng":121.6244714}},{"name":"何明宗","god":"福德正神","area":"南投縣","address":"南投縣埔里鎮北門里3鄰中山路二段260號","religion":"道教","buildType":"適用監督寺廟條例寺廟","orgType":"管理委員會制","phone":"049-2982362","other":""},{"name":"高喜財","god":"福德正神","area":"基隆市","address":"基隆市暖暖區暖暖街133之1號","religion":"道教","buildType":"適用監督寺廟條例寺廟","orgType":"管理委員會制","phone":"02-24571596","other":"","location":{"lat":25.1027594,"lng":121.7387682}},{"name":"黃明照","god":"福德正神","area":"南投縣","address":"南投縣埔里鎮新生路清新里11鄰19號","religion":"道教","buildType":"適用監督寺廟條例寺廟","orgType":"管理委員會制","phone":"049-2990255","other":""},{"name":"何文杞","god":"福德正神","area":"新北市","address":"新北市萬里區萬里里環河路成功新村環河路旁","religion":"道教","buildType":"適用監督寺廟條例寺廟","orgType":"管理委員會制","phone":"02-24921789","other":""},{"name":"李政順","god":"福德正神","area":"新北市","address":"新北市萬里區野柳里港西98號後方","religion":"道教","buildType":"適用監督寺廟條例寺廟","orgType":"管理人(住持)制","phone":"02-24922536","other":""},{"name":"李新福","god":"土地公","area":"屏東縣","address":"屏東縣萬丹鄉竹林村4鄰26號","religion":"道教","buildType":"適用監督寺廟條例寺廟","orgType":"管理人(住持)制","phone":"08-0000000","other":"","location":{"lat":22.6012577,"lng":120.5135161}},{"name":"李川","god":"福德正神","area":"基隆市","address":"基隆市七堵區大同街瑪東里52之1號邊","religion":"道教","buildType":"適用監督寺廟條例寺廟","orgType":"管理委員會制","phone":"02-24564256","other":""},{"name":"陳義樹","god":"福德正神","area":"桃園市","address":"桃園市桃園區陽明公園內","religion":"道教","buildType":"適用監督寺廟條例寺廟","orgType":"管理委員會制","phone":"03-3626009","other":"","location":{"lat":24.981079,"lng":121.306388}},{"name":"鄭志勳","god":"福德正神","area":"新北市","address":"新北市汐止區茄苳里茄福街76巷1號邊","religion":"道教","buildType":"適用監督寺廟條例寺廟","orgType":"管理人(住持)制","phone":"02-86480327","other":""},{"name":"闕東波","god":"福德正神","area":"新北市","address":"新北市汐止區山光里樟樹二路339巷6弄3號之1","religion":"道教","buildType":"適用監督寺廟條例寺廟","orgType":"管理人(住持)制","phone":"02-26487739","other":"","location":{"lat":25.0603274,"lng":121.6402271}},{"name":"吳浤景","god":"福德正神","area":"彰化縣","address":"彰化縣彰化市岸頭巷延平里7鄰15弄90號","religion":"道教","buildType":"適用監督寺廟條例寺廟","orgType":"其他","phone":"04-7235550","other":"","location":{"lat":24.0606487,"lng":120.550931}},{"name":"蔡世平","god":"福德正神","area":"南投縣","address":"南投縣仁愛鄉楓林路南豐村五十三之一號","religion":"道教","buildType":"適用監督寺廟條例寺廟","orgType":"管理委員會制","phone":"049-2987432","other":""},{"name":"朱湘江","god":"福德正神","area":"嘉義縣","address":"嘉義縣中埔鄉石頭厝段一八八之七地號","religion":"道教","buildType":"適用監督寺廟條例寺廟","orgType":"管理人(住持)制","phone":"05-2530295","other":""},{"name":"游福真","god":"福德正神","area":"臺中市","address":"臺中市豐原區長壽路1號","religion":"道教","buildType":"適用監督寺廟條例寺廟","orgType":"管理人(住持)制","phone":"04-25287796","other":"","location":{"lat":24.2533779,"lng":120.747553}},{"name":"黃金財","god":"福德正神","area":"臺中市","address":"臺中市豐原區南陽路58巷22之1號旁","religion":"道教","buildType":"適用監督寺廟條例寺廟","orgType":"管理人(住持)制","phone":"-","other":""},{"name":"邱海","god":"福德正神","area":"彰化縣","address":"彰化縣彰化市崙平南路20巷11之4號","religion":"道教","buildType":"適用監督寺廟條例寺廟","orgType":"管理委員會制","phone":"04-7612553","other":"","location":{"lat":24.066974,"lng":120.527143}},{"name":"洪清淵","god":"福德正神","area":"屏東縣","address":"屏東縣東港鎮延平路八德里211號","religion":"道教","buildType":"適用監督寺廟條例寺廟","orgType":"管理委員會制","phone":"08-8324297","other":"","location":{"lat":22.4651776,"lng":120.4469842}},{"name":"黃金村","god":"福德正神","area":"新竹市","address":"新竹市南隘里8鄰南隘路二段151巷27號","religion":"道教","buildType":"適用監督寺廟條例寺廟","orgType":"其他","phone":"03-5371309","other":"","location":{"lat":24.7304565,"lng":120.9365049}},{"name":"林達英","god":"福德正神","area":"屏東縣","address":"屏東縣萬巒鄉永全路泗溝村51號","religion":"道教","buildType":"適用監督寺廟條例寺廟","orgType":"管理委員會制","phone":"08-0000000","other":"","location":{"lat":22.5881649,"lng":120.5805455}},{"name":"李惠美","god":"福德正神","area":"屏東縣","address":"屏東縣南州鄉大埔路萬華村5之1","religion":"道教","buildType":"適用監督寺廟條例寺廟","orgType":"管理委員會制","phone":"08-8641759","other":"","location":{"lat":22.490404,"lng":120.509879}},{"name":"黃安盛","god":"福德正神","area":"臺中市","address":"臺中市南屯區永鎮巷永定里13-9號","religion":"道教","buildType":"適用監督寺廟條例寺廟","orgType":"管理委員會制","phone":"04-23894487","other":"","location":{"lat":24.1384625,"lng":120.6333176}},{"name":"陳政寬","god":"福德正神","area":"嘉義市","address":"嘉義市東區華南里公明路139號","religion":"道教","buildType":"適用監督寺廟條例寺廟","orgType":"管理委員會制","phone":"05-2232396","other":"","location":{"lat":23.4802647,"lng":120.4561134}},{"name":"李健修","god":"福德正神","area":"高雄市","address":"高雄市大樹區三和里三和路130號","religion":"道教","buildType":"適用監督寺廟條例寺廟","orgType":"管理委員會制","phone":"07-6563833","other":"","location":{"lat":22.7167445,"lng":120.4253987}},{"name":"林明記","god":"福德正神","area":"嘉義縣","address":"嘉義縣新港鄉南港村4鄰88號","religion":"道教","buildType":"適用監督寺廟條例寺廟","orgType":"管理人(住持)制","phone":"05-3747632","other":"","location":{"lat":23.5537851,"lng":120.3132792}},{"name":"施火星","god":"福德正神","area":"新北市","address":"新北市板橋區大觀路2段174巷129弄70號邊","religion":"道教","buildType":"適用監督寺廟條例寺廟","orgType":"管理人(住持)制","phone":"02-29683323","other":"","location":{"lat":24.9922612,"lng":121.4291719}},{"name":"林守德","god":"福德正神","area":"屏東縣","address":"屏東縣新園鄉仙吉村興安1巷","religion":"道教","buildType":"適用監督寺廟條例寺廟","orgType":"管理委員會制","phone":"08-8687369","other":"","location":{"lat":22.5323465,"lng":120.4617848}},{"name":"林明傑","god":"福德正神","area":"屏東縣","address":"屏東縣新園鄉媽祖路新園村2號","religion":"道教","buildType":"適用監督寺廟條例寺廟","orgType":"管理委員會制","phone":"08-0000000","other":"","location":{"lat":22.5217261,"lng":120.4513728}},{"name":"童吉雄","god":"福德正神","area":"基隆市","address":"基隆市中山區西定路198之1號","religion":"道教","buildType":"適用監督寺廟條例寺廟","orgType":"管理委員會制","phone":"02-24287507","other":"","location":{"lat":25.1365219,"lng":121.73277}},{"name":"童再興","god":"福德正神","area":"基隆市","address":"基隆市中山區協和街151號左邊","religion":"道教","buildType":"其他","orgType":"管理人(住持)制","phone":"02-24260836","other":""},{"name":"黃清水","god":"福德正神","area":"屏東縣","address":"屏東縣新園鄉中慶巷新園村新東村","religion":"道教","buildType":"適用監督寺廟條例寺廟","orgType":"管理委員會制","phone":"08-0000000","other":"","location":{"lat":22.5310898,"lng":120.4518621}},{"name":"鄒永煥","god":"福德正神","area":"桃園市","address":"桃園市楊梅區新富五街員本里12鄰22號","religion":"道教","buildType":"適用監督寺廟條例寺廟","orgType":"其他","phone":"03-4723901","other":"","location":{"lat":24.9355707,"lng":121.0929337}},{"name":"蕭啓明","god":"福德正神","area":"宜蘭縣","address":"宜蘭縣冬山鄉冬山鄉大進村大進路202號旁","religion":"道教","buildType":"適用監督寺廟條例寺廟","orgType":"管理人(住持)制","phone":"03-9511526","other":"","location":{"lat":24.633408,"lng":121.7131847}},{"name":"陳月卿","god":"福德正神","area":"宜蘭縣","address":"宜蘭縣冬山鄉順安村永興路二段91巷1號前","religion":"道教","buildType":"適用監督寺廟條例寺廟","orgType":"管理人(住持)制","phone":"03-9582246","other":""},{"name":"魏丞章","god":"土地公","area":"臺中市","address":"臺中市豐原區三村路98之1號","religion":"道教","buildType":"適用監督寺廟條例寺廟","orgType":"管理委員會制","phone":"04-25269629","other":"","location":{"lat":24.2425463,"lng":120.7099088}},{"name":"王輝煌","god":"福德正神","area":"臺中市","address":"臺中市豐原區大順街8巷107弄臨6號","religion":"道教","buildType":"適用監督寺廟條例寺廟","orgType":"管理人(住持)制","phone":"04-25226347","other":"","location":{"lat":24.2592963,"lng":120.7238064}},{"name":"黃永波","god":"福德正神","area":"臺中市","address":"臺中市豐原區三和路354巷97弄1號","religion":"道教","buildType":"適用監督寺廟條例寺廟","orgType":"其他","phone":"04-25234106","other":"","location":{"lat":24.2316866,"lng":120.7016987}},{"name":"林隆源","god":"福德正神","area":"臺中市","address":"臺中市豐原區鎌村路644號旁","religion":"道教","buildType":"適用監督寺廟條例寺廟","orgType":"管理人(住持)制","phone":"04-25370072","other":"","location":{"lat":24.2313459,"lng":120.7246109}},{"name":"林隆源","god":"福德正神","area":"臺中市","address":"臺中市豐原區鎌村路107巷102弄內","religion":"道教","buildType":"適用監督寺廟條例寺廟","orgType":"管理人(住持)制","phone":"04-25370072","other":"","location":{"lat":24.2313676,"lng":120.7285089}},{"name":"張德新","god":"福德正神","area":"臺中市","address":"臺中市豐原區南陽路綠山巷7弄10號","religion":"道教","buildType":"適用監督寺廟條例寺廟","orgType":"管理人(住持)制","phone":"04-25224704","other":"","location":{"lat":24.243283,"lng":120.7335524}},{"name":"李秋東","god":"福德正神","area":"彰化縣","address":"彰化縣田尾鄉新興路新興村452號","religion":"道教","buildType":"適用監督寺廟條例寺廟","orgType":"管理委員會制","phone":"04-8736092","other":"","location":{"lat":23.9019529,"lng":120.5594636}},{"name":"蔡正文","god":"福德正神","area":"苗栗縣","address":"苗栗縣頭份市頭份一小段327地號（聯絡處：裕賢宮：土牛里6鄰66號）","religion":"道教","buildType":"適用監督寺廟條例寺廟","orgType":"管理人(住持)制","phone":"-","other":""},{"name":"黃清坤","god":"福德正神","area":"屏東縣","address":"屏東縣南州鄉神農路南安村15號","religion":"道教","buildType":"適用監督寺廟條例寺廟","orgType":"管理委員會制","phone":"08-8643677","other":"","location":{"lat":22.4654421,"lng":120.5208306}},{"name":"林福春","god":"福德正神","area":"新北市","address":"新北市板橋區港尾里中正路254之1號","religion":"道教","buildType":"適用監督寺廟條例寺廟","orgType":"管理委員會制","phone":"02-29685623","other":"","location":{"lat":25.0193785,"lng":121.4555547}},{"name":"魏炳崑","god":"福德正神","area":"南投縣","address":"南投縣水里鄉頂崁巷頂崁村34-1號","religion":"道教","buildType":"適用監督寺廟條例寺廟","orgType":"管理人(住持)制","phone":"049-2773566","other":"","location":{"lat":23.7993987,"lng":120.864354}},{"name":"鄭銅欣","god":"福德正神","area":"彰化縣","address":"彰化縣田尾鄉福德巷北曾村359號","religion":"道教","buildType":"適用監督寺廟條例寺廟","orgType":"其他","phone":"04-8832772","other":"","location":{"lat":23.8948294,"lng":120.5361986}},{"name":"陳水連","god":"福德正神","area":"臺南市","address":"臺南市東山區高原里11鄰高原93-2號","religion":"道教","buildType":"適用監督寺廟條例寺廟","orgType":"其他","phone":"06-6861885","other":"","location":{"lat":23.290859,"lng":120.499217}},{"name":"姜久田","god":"福德正神","area":"桃園市","address":"桃園市中壢區慈惠二街興南里12鄰43號","religion":"道教","buildType":"適用監督寺廟條例寺廟","orgType":"管理委員會制","phone":"03-4255334","other":"","location":{"lat":24.9606778,"lng":121.2241572}},{"name":"鄧萬興","god":"福德正神","area":"新北市","address":"新北市樹林區柑園里柑園街2段22號","religion":"道教","buildType":"適用監督寺廟條例寺廟","orgType":"管理委員會制","phone":"02-26801796","other":"","location":{"lat":24.9556857,"lng":121.3877922}},{"name":"張金土","god":"福德正神","area":"基隆市","address":"基隆市中正區調和街調和隧道邊","religion":"道教","buildType":"適用監督寺廟條例寺廟","orgType":"管理委員會制","phone":"02-24693042","other":""},{"name":"余丁雄","god":"福德正神","area":"屏東縣","address":"屏東縣新園鄉內庄村興中路2-20號","religion":"道教","buildType":"適用監督寺廟條例寺廟","orgType":"管理委員會制","phone":"08-0000000","other":"","location":{"lat":22.5244399,"lng":120.4794526}},{"name":"周安順","god":"福德正神","area":"屏東縣","address":"屏東縣新園鄉高山路田洋村45號","religion":"道教","buildType":"適用監督寺廟條例寺廟","orgType":"管理人(住持)制","phone":"08-0000000","other":"","location":{"lat":22.5500238,"lng":120.4501099}},{"name":"蘇秋分","god":"福德正神","area":"雲林縣","address":"雲林縣大埤鄉豐興嘉興村","religion":"道教","buildType":"適用監督寺廟條例寺廟","orgType":"管理委員會制","phone":"05-5911568","other":"","location":{"lat":23.644265,"lng":120.464959}},{"name":"高士倫","god":"福德正神","area":"宜蘭縣","address":"宜蘭縣冬山鄉安平村大安路715巷20號旁","religion":"道教","buildType":"適用監督寺廟條例寺廟","orgType":"管理人(住持)制","phone":"03-9591720","other":""},{"name":"柯金龍","god":"福德正神","area":"屏東縣","address":"屏東縣屏東市新興街新興里3巷36-2號","religion":"道教","buildType":"適用監督寺廟條例寺廟","orgType":"管理人(住持)制","phone":"08-7529900","other":"","location":{"lat":22.643671,"lng":120.484758}},{"name":"劉滿元","god":"福德正神","area":"屏東縣","address":"屏東縣麟洛鄉田中村第六鄰","religion":"道教","buildType":"適用監督寺廟條例寺廟","orgType":"管理人(住持)制","phone":"08-0000000","other":""},{"name":"張華童","god":"福德正神","area":"基隆市","address":"基隆市中山區中山一路113巷73號","religion":"道教","buildType":"私建","orgType":"管理人(住持)制","phone":"02-24562278","other":"","location":{"lat":25.1330502,"lng":121.7371247}},{"name":"鄭明和","god":"福德正神","area":"基隆市","address":"基隆市中山區中山一路189巷34號2樓","religion":"道教","buildType":"適用監督寺廟條例寺廟","orgType":"管理委員會制","phone":"02-24233353","other":"","location":{"lat":25.133634,"lng":121.738508}},{"name":"許正敏","god":"福德正神","area":"新北市","address":"新北市板橋區後埔里重慶路67巷3號之1","religion":"道教","buildType":"適用監督寺廟條例寺廟","orgType":"管理委員會制","phone":"02-29534706","other":"","location":{"lat":25.0071654,"lng":121.4621182}},{"name":"廖金順","god":"福德正神","area":"新北市","address":"新北市板橋區九如里中山路二段250巷1號","religion":"道教","buildType":"適用監督寺廟條例寺廟","orgType":"管理委員會制","phone":"02-29645591","other":"","location":{"lat":25.0051354,"lng":121.4856517}},{"name":"張文聰","god":"福德正神","area":"臺北市","address":"臺北市士林區大南路義信里138號","religion":"道教","buildType":"適用監督寺廟條例寺廟","orgType":"管理委員會制","phone":"02-28819326","other":"","location":{"lat":25.0898766,"lng":121.522881}},{"name":"林振池","god":"福德正神","area":"宜蘭縣","address":"宜蘭縣冬山鄉冬山鄉太和村冬山路二段350巷143號","religion":"道教","buildType":"適用監督寺廟條例寺廟","orgType":"管理人(住持)制","phone":"039-591955","other":"","location":{"lat":24.6360849,"lng":121.7872348}},{"name":"洪萬春","god":"福德正神","area":"屏東縣","address":"屏東縣滿州鄉興海路港口村6號","religion":"道教","buildType":"適用監督寺廟條例寺廟","orgType":"管理人(住持)制","phone":"08-8801586","other":"","location":{"lat":21.9808434,"lng":120.8418549}},{"name":"黃卓成","god":"福德正神","area":"宜蘭縣","address":"宜蘭縣冬山鄉松樹路鹿埔村101號旁","religion":"道教","buildType":"適用監督寺廟條例寺廟","orgType":"管理人(住持)制","phone":"03-9585637","other":""},{"name":"唐有吉","god":"福德正神","area":"新北市","address":"新北市萬里區萬里里獅頭路3號之1","religion":"道教","buildType":"適用監督寺廟條例寺廟","orgType":"管理委員會制","phone":"02-24922281","other":"","location":{"lat":25.1758683,"lng":121.6907529}},{"name":"李階得","god":"福德正神","area":"高雄市","address":"高雄市六龜區義寶里維新街1巷2號","religion":"道教","buildType":"適用監督寺廟條例寺廟","orgType":"管理委員會制","phone":"07-6891050","other":"","location":{"lat":22.994337,"lng":120.6375612}},{"name":"吳濟田","god":"福德正神","area":"新北市","address":"新北市板橋區福安里大觀路二段162號(暫厝)","religion":"道教","buildType":"適用監督寺廟條例寺廟","orgType":"管理人(住持)制","phone":"02-29662417","other":""},{"name":"林正男","god":"土地公","area":"澎湖縣","address":"澎湖縣湖西鄉龍門村18號","religion":"道教","buildType":"適用監督寺廟條例寺廟","orgType":"管理人(住持)制","phone":"06-9921857","other":"","location":{"lat":23.5598019,"lng":119.676308}},{"name":"姚鳳林","god":"福德正神","area":"屏東縣","address":"屏東縣滿州鄉","religion":"道教","buildType":"適用監督寺廟條例寺廟","orgType":"管理人(住持)制","phone":"08-0000000","other":"","location":{"lat":22.04385,"lng":120.8384093}},{"name":"蔡溪泉","god":"福德正神","area":"宜蘭縣","address":"宜蘭縣員山鄉坡城路枕山村48號(湖山國小附近)","religion":"道教","buildType":"適用監督寺廟條例寺廟","orgType":"其他","phone":"03-0000000","other":"","location":{"lat":24.7794478,"lng":121.6996482}},{"name":"林行吉","god":"福德正神","area":"新北市","address":"新北市中和區碧河里連城路249號","religion":"道教","buildType":"適用監督寺廟條例寺廟","orgType":"管理委員會制","phone":"02-22490677","other":"","location":{"lat":24.9966579,"lng":121.4870593}},{"name":"林碧燕","god":"福德正神","area":"新北市","address":"新北市永和區民富里民樂街74之1號","religion":"道教","buildType":"適用監督寺廟條例寺廟","orgType":"管理委員會制","phone":"02-29413917","other":"","location":{"lat":24.9984601,"lng":121.5274164}},{"name":"王春南","god":"福德正神","area":"臺南市","address":"臺南市白河區關嶺里12鄰南寮111號","religion":"道教","buildType":"適用監督寺廟條例寺廟","orgType":"管理委員會制","phone":"06-6822547","other":"","location":{"lat":23.2976244,"lng":120.5029355}},{"name":"陳振文","god":"福德正神","area":"臺南市","address":"臺南市白河區汴頭里7鄰五汴頭20-8號","religion":"道教","buildType":"適用監督寺廟條例寺廟","orgType":"管理委員會制","phone":"06-6854884","other":"","location":{"lat":23.3610538,"lng":120.4432519}},{"name":"洪永純","god":"福德正神","area":"屏東縣","address":"屏東縣屏東市中正路仁愛里368號","religion":"道教","buildType":"適用監督寺廟條例寺廟","orgType":"管理委員會制","phone":"08-7375023","other":"","location":{"lat":22.6828427,"lng":120.4925751}},{"name":"周進盛","god":"福德正神","area":"臺中市","address":"臺中市豐原區翁社里豐年路5之1號","religion":"道教","buildType":"適用監督寺廟條例寺廟","orgType":"管理人(住持)制","phone":"04-25227054","other":"","location":{"lat":24.262453,"lng":120.736719}},{"name":"林炎煌","god":"福德正神","area":"臺中市","address":"臺中市豐原區水源路680巷16號","religion":"佛教","buildType":"適用監督寺廟條例寺廟","orgType":"管理委員會制","phone":"04-25223897","other":"","location":{"lat":24.2560956,"lng":120.7287384}},{"name":"李瑞芳","god":"福德正神","area":"宜蘭縣","address":"宜蘭縣頭城鎮金面金面里(金面段大金面小段495-6)","religion":"道教","buildType":"適用監督寺廟條例寺廟","orgType":"其他","phone":"03-9774774","other":""},{"name":"李煥文","god":"福德正神","area":"基隆市","address":"基隆市中正區中船路112巷30弄63號","religion":"道教","buildType":"適用監督寺廟條例寺廟","orgType":"管理委員會制","phone":"02-24288580","other":"","location":{"lat":25.1378898,"lng":121.7514634}},{"name":"黃哲桶","god":"福德正神","area":"桃園市","address":"桃園市楊梅區高榮里17鄰","religion":"道教","buildType":"適用監督寺廟條例寺廟","orgType":"管理委員會制","phone":"03-4643681","other":"","location":{"lat":24.9395505,"lng":121.1739024}},{"name":"林清埤(逕予登","god":"福德正神","area":"基隆市","address":"基隆市中正區正義路100巷37號","religion":"道教","buildType":"適用監督寺廟條例寺廟","orgType":"管理委員會制","phone":"02-24691417","other":"","location":{"lat":25.1336809,"lng":121.7478901}},{"name":"潘蜂王","god":"福德正神","area":"屏東縣","address":"屏東縣滿州鄉山頂路里德村1-1號","religion":"道教","buildType":"適用監督寺廟條例寺廟","orgType":"管理委員會制","phone":"08-0000000","other":"","location":{"lat":22.0200922,"lng":120.8520916}},{"name":"江榮春","god":"福德正神","area":"新北市","address":"新北市萬里區磺潭里磺溪12號左前方100公尺","religion":"道教","buildType":"適用監督寺廟條例寺廟","orgType":"管理人(住持)制","phone":"032-983580","other":""},{"name":"林隆順","god":"福德正神","area":"新北市","address":"新北市萬里區港東野柳里路167號(野柳國小左側)","religion":"道教","buildType":"適用監督寺廟條例寺廟","orgType":"管理人(住持)制","phone":"-","other":""},{"name":"彭吉台","god":"福德正神","area":"新竹縣","address":"新竹縣竹北市勝利二路169號","religion":"道教","buildType":"適用監督寺廟條例寺廟","orgType":"其他","phone":"03-5503600","other":"","location":{"lat":24.821868,"lng":121.0292558}},{"name":"胡枝財","god":"福德正神","area":"屏東縣","address":"屏東縣滿州鄉福德路響林村10巷6號","religion":"道教","buildType":"適用監督寺廟條例寺廟","orgType":"管理人(住持)制","phone":"08-0000000","other":"","location":{"lat":22.0373294,"lng":120.8377257}},{"name":"劉裕盛","god":"福德正神","area":"臺中市","address":"臺中市豐原區西安里瑞興路110號","religion":"道教","buildType":"適用監督寺廟條例寺廟","orgType":"管理委員會制","phone":"04-25285274","other":"","location":{"lat":24.2474906,"lng":120.7117003}},{"name":"蘇義盛","god":"福德正神","area":"屏東縣","address":"屏東縣里港鄉武洛路茄苳村8-13號","religion":"道教","buildType":"適用監督寺廟條例寺廟","orgType":"管理委員會制","phone":"08-7759925","other":"","location":{"lat":22.7720711,"lng":120.5150739}},{"name":"劉溪泉","god":"福德正神","area":"臺中市","address":"臺中市烏日區學田路329號","religion":"道教","buildType":"適用監督寺廟條例寺廟","orgType":"管理人(住持)制","phone":"04-23373498","other":"","location":{"lat":24.1184432,"lng":120.6078546}},{"name":"陳家慶","god":"福德正神","area":"新北市","address":"新北市五股區更寮里更洲路47號之1","religion":"道教","buildType":"適用監督寺廟條例寺廟","orgType":"管理委員會制","phone":"02-29887320","other":"","location":{"lat":25.0786948,"lng":121.4583914}},{"name":"林再發","god":"福德正神","area":"新北市","address":"新北市中和區積穗里11鄰中山路三段63巷臨27號","religion":"道教","buildType":"適用監督寺廟條例寺廟","orgType":"管理委員會制","phone":"02-22211519","other":"","location":{"lat":25.0058521,"lng":121.4792207}},{"name":"廖文騰","god":"福德正神","area":"宜蘭縣","address":"宜蘭縣冬山鄉內湖一路128號","religion":"道教","buildType":"適用監督寺廟條例寺廟","orgType":"管理人(住持)制","phone":"03-9581826","other":"","location":{"lat":24.6438987,"lng":121.7434457}},{"name":"林啟東","god":"福德正神","area":"宜蘭縣","address":"宜蘭縣羅東鎮忠義巷92號〈東光段1027號〉","religion":"道教","buildType":"適用監督寺廟條例寺廟","orgType":"管理人(住持)制","phone":"03-9546412","other":""},{"name":"李明堂","god":"土地公","area":"臺中市","address":"臺中市霧峰區四德里新埔路224號","religion":"道教","buildType":"適用監督寺廟條例寺廟","orgType":"管理人(住持)制","phone":"04-24077124","other":"","location":{"lat":24.0779274,"lng":120.6703498}},{"name":"高長","god":"福德正神","area":"新北市","address":"新北市樹林區八德街63之1號","religion":"道教","buildType":"適用監督寺廟條例寺廟","orgType":"管理人(住持)制","phone":"02-26816696","other":"","location":{"lat":24.9848281,"lng":121.417825}},{"name":"張森田","god":"福德正神","area":"宜蘭縣","address":"宜蘭縣冬山鄉冬山鄉柯林村安農二路57巷6號","religion":"道教","buildType":"適用監督寺廟條例寺廟","orgType":"管理人(住持)制","phone":"03-9571006","other":""},{"name":"鄭水金","god":"福德正神","area":"宜蘭縣","address":"宜蘭縣冬山鄉寶聖路丸山村161巷12號","religion":"道教","buildType":"適用監督寺廟條例寺廟","orgType":"管理人(住持)制","phone":"03-9586460","other":"","location":{"lat":24.6402213,"lng":121.7646226}},{"name":"江炳源","god":"福德正神","area":"苗栗縣","address":"苗栗縣苗栗市光復路大同里161號","religion":"道教","buildType":"適用監督寺廟條例寺廟","orgType":"管理委員會制","phone":"037-320131","other":"","location":{"lat":24.5554761,"lng":120.8163648}},{"name":"林金山","god":"福德正神","area":"嘉義縣","address":"嘉義縣番路鄉公田段四十之十九地號","religion":"道教","buildType":"適用監督寺廟條例寺廟","orgType":"管理委員會制","phone":"05-2396282","other":""},{"name":"陳文隆","god":"福德正神","area":"新北市","address":"新北市林口區文化北路412巷76號前","religion":"道教","buildType":"適用監督寺廟條例寺廟","orgType":"管理人(住持)制","phone":"-","other":"","location":{"lat":25.0694957,"lng":121.3567019}},{"name":"王進成","god":"福德正神","area":"臺南市","address":"臺南市北區正覺街120號","religion":"道教","buildType":"適用監督寺廟條例寺廟","orgType":"管理人(住持)制","phone":"06-2510554","other":"","location":{"lat":23.0182821,"lng":120.2131134}},{"name":"葉金安","god":"福德正神","area":"宜蘭縣","address":"宜蘭縣三星鄉大隱村大埔中路233巷58號","religion":"道教","buildType":"適用監督寺廟條例寺廟","orgType":"管理人(住持)制","phone":"03-9899800","other":"","location":{"lat":24.6667674,"lng":121.7085683}},{"name":"陳有文(暫代)","god":"福德正神","area":"基隆市","address":"基隆市暖暖區尚仁街八西里6鄰75號","religion":"道教","buildType":"其他","orgType":"管理人(住持)制","phone":"02-24313272","other":"","location":{"lat":25.1108706,"lng":121.7330784}},{"name":"陳吉貴","god":"福德正神","area":"臺北市","address":"臺北市大安區臥龍街虎嘯里61號","religion":"道教","buildType":"適用監督寺廟條例寺廟","orgType":"管理委員會制","phone":"02-27320830","other":"","location":{"lat":25.0220824,"lng":121.5474811}},{"name":"陳福來","god":"福德正神","area":"新北市","address":"新北市萬里區大鵬里頂社44號右側","religion":"道教","buildType":"適用監督寺廟條例寺廟","orgType":"管理人(住持)制","phone":"02-983017","other":""},{"name":"饒保能","god":"福德正神","area":"屏東縣","address":"屏東縣萬丹鄉後村村5鄰1之1號","religion":"道教","buildType":"適用監督寺廟條例寺廟","orgType":"管理人(住持)制","phone":"08-0000000","other":""},{"name":"潘天財","god":"福德正神","area":"屏東縣","address":"屏東縣內埔鄉竹圍村中原路318號","religion":"道教","buildType":"適用監督寺廟條例寺廟","orgType":"管理人(住持)制","phone":"08-7781261","other":""},{"name":"黃煥松","god":"福德正神","area":"屏東縣","address":"屏東縣內埔鄉東寧路東寧村320號","religion":"道教","buildType":"適用監督寺廟條例寺廟","orgType":"管理人(住持)制","phone":"08-0000000","other":"","location":{"lat":22.6184013,"lng":120.5609381}},{"name":"宋清華","god":"福德正神","area":"屏東縣","address":"屏東縣內埔鄉番子厝段252-2號","religion":"道教","buildType":"適用監督寺廟條例寺廟","orgType":"管理人(住持)制","phone":"08-7702381","other":""},{"name":"莊啟能","god":"福德正神","area":"彰化縣","address":"彰化縣彰化市文化里長壽街19號","religion":"道教","buildType":"適用監督寺廟條例寺廟","orgType":"管理委員會制","phone":"04-7222753","other":"","location":{"lat":24.083944,"lng":120.546529}},{"name":"賴錫南","god":"福德正神","area":"彰化縣","address":"彰化縣埔心鄉義民村員鹿路二段532之1號","religion":"道教","buildType":"適用監督寺廟條例寺廟","orgType":"其他","phone":"04-8281325","other":"","location":{"lat":23.952594,"lng":120.5396118}},{"name":"林水勝","god":"福德正神","area":"臺北市","address":"臺北市信義區永吉路11064 30巷30號","religion":"道教","buildType":"適用監督寺廟條例寺廟","orgType":"管理委員會制","phone":"02-27466032","other":"","location":{"lat":25.0456275,"lng":121.5690238}},{"name":"吳朝銘","god":"福德正神","area":"臺南市","address":"臺南市北區崇安街91號","religion":"道教","buildType":"適用監督寺廟條例寺廟","orgType":"管理委員會制","phone":"06-2254227","other":"","location":{"lat":23.0007886,"lng":120.2072836}},{"name":"吳榮權","god":"福德正神","area":"宜蘭縣","address":"宜蘭縣三星鄉萬德村上將路６段311號","religion":"道教","buildType":"適用監督寺廟條例寺廟","orgType":"管理人(住持)制","phone":"03-9891783","other":"","location":{"lat":24.6769338,"lng":121.654294}},{"name":"吳文章","god":"福德正神","area":"宜蘭縣","address":"宜蘭縣三星鄉集慶村成功路35號","religion":"道教","buildType":"適用監督寺廟條例寺廟","orgType":"管理人(住持)制","phone":"03-9893304","other":"","location":{"lat":24.6612671,"lng":121.650605}},{"name":"鄭金樹","god":"福德正神","area":"臺中市","address":"臺中市龍井區竹坑里竹師路１段156巷口","religion":"道教","buildType":"適用監督寺廟條例寺廟","orgType":"管理人(住持)制","phone":"09-28335903","other":""},{"name":"楊進才","god":"福德正神","area":"屏東縣","address":"屏東縣內埔鄉黎東路黎明村454號","religion":"道教","buildType":"適用監督寺廟條例寺廟","orgType":"管理人(住持)制","phone":"-","other":"","location":{"lat":22.6901994,"lng":120.6038809}},{"name":"邱長興","god":"福德正神","area":"屏東縣","address":"屏東縣內埔鄉東片村第4鄰","religion":"道教","buildType":"適用監督寺廟條例寺廟","orgType":"管理人(住持)制","phone":"08-0000000","other":""},{"name":"陳福雄","god":"福德正神","area":"屏東縣","address":"屏東縣枋山鄉加祿村嘉和83號","religion":"道教","buildType":"適用監督寺廟條例寺廟","orgType":"管理委員會制","phone":"08-872008","other":"","location":{"lat":22.3147403,"lng":120.6356941}},{"name":"邱長興","god":"福德正神","area":"屏東縣","address":"屏東縣內埔鄉東片村第1鄰","religion":"道教","buildType":"適用監督寺廟條例寺廟","orgType":"管理人(住持)制","phone":"08-0000000","other":""},{"name":"邱源忠","god":"福德正神","area":"苗栗縣","address":"苗栗縣苗栗市水源里8鄰龜山1號","religion":"道教","buildType":"適用監督寺廟條例寺廟","orgType":"管理委員會制","phone":"037-262565","other":"","location":{"lat":24.54121,"lng":120.815924}},{"name":"戴雲山","god":"福德正神","area":"新竹市","address":"新竹市綠水里博愛街79巷1-1號","religion":"道教","buildType":"適用監督寺廟條例寺廟","orgType":"其他","phone":"03-5712202","other":"","location":{"lat":24.7969838,"lng":120.9878415}},{"name":"張蔡淑珠","god":"福德正神","area":"新竹市","address":"新竹市磐石里7鄰磐石路28號","religion":"道教","buildType":"適用監督寺廟條例寺廟","orgType":"其他","phone":"03-5240095","other":"","location":{"lat":24.8088031,"lng":120.9570724}},{"name":"游塗容","god":"福德正神","area":"新北市","address":"新北市中和區外南里南山路236之1號","religion":"道教","buildType":"適用監督寺廟條例寺廟","orgType":"管理委員會制","phone":"02-89410077","other":"","location":{"lat":24.9897179,"lng":121.5064692}},{"name":"張錦和","god":"福德正神","area":"臺中市","address":"臺中市豐原區安康路20巷74號","religion":"道教","buildType":"適用監督寺廟條例寺廟","orgType":"管理委員會制","phone":"04-25227070","other":"","location":{"lat":24.2427355,"lng":120.7233636}},{"name":"林瑞澤","god":"福德正神","area":"臺中市","address":"臺中市豐原區圓環北路一段245號邊","religion":"道教","buildType":"適用監督寺廟條例寺廟","orgType":"管理人(住持)制","phone":"04-25222676","other":""},{"name":"白俊宏","god":"福德正神","area":"南投縣","address":"南投縣水里鄉民權路新城村358號","religion":"道教","buildType":"適用監督寺廟條例寺廟","orgType":"管理委員會制","phone":"049-2776247","other":"","location":{"lat":23.8170287,"lng":120.8504405}},{"name":"鄭明華","god":"福德正神","area":"新北市","address":"新北市新店區粗坑里新烏路1段70號","religion":"道教","buildType":"適用監督寺廟條例寺廟","orgType":"管理委員會制","phone":"02-26667370","other":"","location":{"lat":24.9413743,"lng":121.5457389}},{"name":"葉冠億","god":"福德正神","area":"高雄市","address":"高雄市旗山區中山路五九巷一○號","religion":"道教","buildType":"其他","orgType":"管理人(住持)制","phone":"07-6623123","other":""},{"name":"曾正和","god":"福德正神","area":"新北市","address":"新北市新店區安康路三段517號旁","religion":"道教","buildType":"適用監督寺廟條例寺廟","orgType":"管理委員會制","phone":"02-22156266","other":""},{"name":"林連生","god":"福德正神","area":"宜蘭縣","address":"宜蘭縣頭城鎮港口里(路)27號","religion":"道教","buildType":"適用監督寺廟條例寺廟","orgType":"管理人(住持)制","phone":"03-9773494","other":"","location":{"lat":24.855856,"lng":121.822142}},{"name":"吳振嘉","god":"福德正神","area":"臺中市","address":"臺中市東勢區東坑路121之6號","religion":"道教","buildType":"適用監督寺廟條例寺廟","orgType":"管理人(住持)制","phone":"04-25877289","other":"","location":{"lat":24.2461825,"lng":120.8343668}},{"name":"蔡柳池","god":"福德正神","area":"臺北市","address":"臺北市北投區自強街福興里5巷22號","religion":"道教","buildType":"適用監督寺廟條例寺廟","orgType":"管理委員會制","phone":"02-28235574","other":"","location":{"lat":25.1101986,"lng":121.5127937}},{"name":"紀少偉","god":"福德正神","area":"臺中市","address":"臺中市龍井區龍津里龍津段39-1號","religion":"道教","buildType":"適用監督寺廟條例寺廟","orgType":"管理人(住持)制","phone":"04-26396555","other":"","location":{"lat":24.200939,"lng":120.521696}},{"name":"吳芳澤","god":"土地公","area":"彰化縣","address":"彰化縣員林市員鹿路新生里210號","religion":"道教","buildType":"適用監督寺廟條例寺廟","orgType":"其他","phone":"04-8321458","other":"","location":{"lat":23.9573767,"lng":120.5638277}},{"name":"葉伯容","god":"福德正神","area":"彰化縣","address":"彰化縣埤頭鄉新生路和豐村201巷81號","religion":"道教","buildType":"適用監督寺廟條例寺廟","orgType":"管理委員會制","phone":"04-8889065","other":"","location":{"lat":23.8822921,"lng":120.4949003}},{"name":"陳清一","god":"福德正神","area":"宜蘭縣","address":"宜蘭縣冬山鄉得安路153號","religion":"道教","buildType":"適用監督寺廟條例寺廟","orgType":"管理人(住持)制","phone":"03-9513770","other":"","location":{"lat":24.6496655,"lng":121.7384184}},{"name":"藍坤海","god":"福德正神","area":"宜蘭縣","address":"宜蘭縣冬山鄉冬山鄉中山村新寮路408號","religion":"道教","buildType":"適用監督寺廟條例寺廟","orgType":"管理人(住持)制","phone":"03-9542493","other":"","location":{"lat":24.6213889,"lng":121.752917}},{"name":"黃德山","god":"福德正神","area":"宜蘭縣","address":"宜蘭縣冬山鄉冬山鄉得安村梅花路881號對面","religion":"道教","buildType":"適用監督寺廟條例寺廟","orgType":"管理委員會制","phone":"091-0058313","other":""},{"name":"李酧祀","god":"福德正神","area":"宜蘭縣","address":"宜蘭縣冬山鄉冬山鄉大進村進利路476號旁","religion":"道教","buildType":"適用監督寺廟條例寺廟","orgType":"管理人(住持)制","phone":"03-9512570","other":"","location":{"lat":24.6478801,"lng":121.711966}},{"name":"李汪文","god":"福德正神","area":"宜蘭縣","address":"宜蘭縣冬山鄉冬山鄉安平村安平路346號對面","religion":"道教","buildType":"適用監督寺廟條例寺廟","orgType":"管理人(住持)制","phone":"03-9593889","other":""},{"name":"李根本","god":"福德正神","area":"南投縣","address":"南投縣埔里鎮梅林六街北梅里17鄰1號","religion":"道教","buildType":"適用監督寺廟條例寺廟","orgType":"其他","phone":"049-2987109","other":""},{"name":"李明崑","god":"福德正神","area":"新北市","address":"新北市萬里區大鵬里萬里加投45號前方50公尺路旁","religion":"道教","buildType":"適用監督寺廟條例寺廟","orgType":"管理人(住持)制","phone":"02-24980899","other":""},{"name":"林淡雲","god":"福德正神","area":"屏東縣","address":"屏東縣萬巒鄉褒忠路萬巒村211號","religion":"道教","buildType":"適用監督寺廟條例寺廟","orgType":"管理委員會制","phone":"08-7813865","other":"","location":{"lat":22.5747551,"lng":120.5683103}},{"name":"李國榮","god":"福德正神","area":"新北市","address":"新北市淡水區新民街226巷2號旁","religion":"道教","buildType":"適用監督寺廟條例寺廟","orgType":"管理委員會制","phone":"02-26206455","other":"","location":{"lat":25.1806412,"lng":121.4361099}},{"name":"林銘達","god":"福德正神","area":"宜蘭縣","address":"宜蘭縣宜蘭市東港路福德巷廿九號之5","religion":"道教","buildType":"適用監督寺廟條例寺廟","orgType":"管理委員會制","phone":"03-9380716","other":"","location":{"lat":24.7533425,"lng":121.76291}},{"name":"林錫監","god":"福德正神","area":"宜蘭縣","address":"宜蘭縣蘇澳鎮武荖坑路新城里71號","religion":"道教","buildType":"適用監督寺廟條例寺廟","orgType":"其他","phone":"03-0000000","other":"","location":{"lat":24.612875,"lng":121.8120477}},{"name":"利文堂","god":"福德正神","area":"屏東縣","address":"屏東縣內埔鄉海平路美和村2號","religion":"道教","buildType":"適用監督寺廟條例寺廟","orgType":"管理委員會制","phone":"08-7781341","other":"","location":{"lat":22.5951753,"lng":120.557114}},{"name":"李鄭花","god":"福德正神","area":"新北市","address":"新北市金山區五湖里南勢26號","religion":"道教","buildType":"適用監督寺廟條例寺廟","orgType":"管理委員會制","phone":"02-24981528","other":"","location":{"lat":25.2166002,"lng":121.6336718}},{"name":"黃清隆","god":"福德正神","area":"新北市","address":"新北市汐止區仁德里和平街6巷8號之1","religion":"道教","buildType":"適用監督寺廟條例寺廟","orgType":"管理委員會制","phone":"02-26423916","other":"","location":{"lat":25.0718522,"lng":121.6631417}},{"name":"黃明芳","god":"土地公","area":"新北市","address":"新北市汐止區環河里2鄰吉林街24巷底(社后下小段111號)","religion":"道教","buildType":"適用監督寺廟條例寺廟","orgType":"管理人(住持)制","phone":"02-26941552","other":""},{"name":"陳春來","god":"福德正神","area":"臺北市","address":"臺北市北投區大同街中庸里臨329之3號","religion":"道教","buildType":"適用監督寺廟條例寺廟","orgType":"管理委員會制","phone":"02-28971028","other":"","location":{"lat":25.1405699,"lng":121.49929}},{"name":"楊樹木","god":"福德正神","area":"臺北市","address":"臺北市松山區八德路４段吉祥里181巷16弄11號","religion":"道教","buildType":"適用監督寺廟條例寺廟","orgType":"管理委員會制","phone":"02-27671417","other":"","location":{"lat":25.0484009,"lng":121.558323}},{"name":"王文煌","god":"福德正神","area":"桃園市","address":"桃園市大溪區埔頂路一段428號","religion":"道教","buildType":"適用監督寺廟條例寺廟","orgType":"管理委員會制","phone":"03-3806260","other":"","location":{"lat":24.9044322,"lng":121.2763756}},{"name":"郭育正","god":"福德正神","area":"高雄市","address":"高雄市旗山區華山一巷圓富里4號附近","religion":"道教","buildType":"適用監督寺廟條例寺廟","orgType":"管理人(住持)制","phone":"-","other":"","location":{"lat":22.9308889,"lng":120.5012837}},{"name":"張寶國","god":"福德正神","area":"桃園市","address":"桃園市觀音區保障村15鄰草漯107-1號","religion":"道教","buildType":"適用監督寺廟條例寺廟","orgType":"管理委員會制","phone":"03-4830448","other":""},{"name":"闕河平","god":"福德正神","area":"臺北市","address":"臺北市南港區南港路２段東新里238巷2號","religion":"道教","buildType":"適用監督寺廟條例寺廟","orgType":"管理委員會制","phone":"02-27850722","other":"","location":{"lat":25.0543817,"lng":121.6060771}},{"name":"鄭鐵雄","god":"福德正神","area":"雲林縣","address":"雲林縣林內鄉中西路林中村四五號","religion":"道教","buildType":"適用監督寺廟條例寺廟","orgType":"管理委員會制","phone":"05-5892777","other":"","location":{"lat":23.7585607,"lng":120.6134021}},{"name":"鄭鋒興","god":"福德正神","area":"高雄市","address":"高雄市鼓山區安海街32巷35號","religion":"道教","buildType":"適用監督寺廟條例寺廟","orgType":"其他","phone":"07-5212840","other":"","location":{"lat":22.619009,"lng":120.267725}},{"name":"黃福進","god":"福德正神","area":"高雄市","address":"高雄市永安區興達路興達巷新港村六七之五號","religion":"道教","buildType":"適用監督寺廟條例寺廟","orgType":"管理人(住持)制","phone":"07-6912691","other":""},{"name":"魏在明","god":"福德正神","area":"屏東縣","address":"屏東縣麟洛鄉麟蹄村18鄰","religion":"道教","buildType":"適用監督寺廟條例寺廟","orgType":"管理人(住持)制","phone":"08-7222890","other":"","location":{"lat":22.6489788,"lng":120.5351057}},{"name":"劉榮祥","god":"福德正神","area":"屏東縣","address":"屏東縣麟洛鄉田中村第六鄰","religion":"道教","buildType":"適用監督寺廟條例寺廟","orgType":"管理人(住持)制","phone":"08-7231836","other":""},{"name":"陳英賢","god":"福德正神","area":"屏東縣","address":"屏東縣麟洛鄉田心村第四鄰","religion":"道教","buildType":"適用監督寺廟條例寺廟","orgType":"管理人(住持)制","phone":"08-7261867","other":""},{"name":"潘明長","god":"福德正神","area":"屏東縣","address":"屏東縣枋寮鄉內寮村五鄰13號","religion":"道教","buildType":"適用監督寺廟條例寺廟","orgType":"管理人(住持)制","phone":"-","other":"","location":{"lat":22.391041,"lng":120.614806}},{"name":"陳東源","god":"福德正神","area":"臺北市","address":"臺北市內湖區康寧路１段紫雲里236號","religion":"道教","buildType":"適用監督寺廟條例寺廟","orgType":"管理人(住持)制","phone":"02-27900442","other":"","location":{"lat":25.078219,"lng":121.596523}},{"name":"陳宗正","god":"福德正神","area":"新北市","address":"新北市石碇區潭邊里9鄰小粗坑15號旁","religion":"道教","buildType":"適用監督寺廟條例寺廟","orgType":"管理人(住持)制","phone":"02-29369417","other":""},{"name":"陳秋和","god":"福德正神","area":"臺北市","address":"臺北市松山區八德路４段慈祐里829巷26號","religion":"道教","buildType":"適用監督寺廟條例寺廟","orgType":"管理委員會制","phone":"02-27686479","other":"","location":{"lat":25.0481251,"lng":121.5588088}},{"name":"曾惟海","god":"福德正神","area":"苗栗縣","address":"苗栗縣苗栗市中正路433巷3之1號","religion":"道教","buildType":"適用監督寺廟條例寺廟","orgType":"管理委員會制","phone":"037-","other":"","location":{"lat":24.5417105,"lng":120.8162786}},{"name":"林裕清","god":"福德正神","area":"雲林縣","address":"雲林縣虎尾鎮三合里舊部二七號","religion":"道教","buildType":"適用監督寺廟條例寺廟","orgType":"管理委員會制","phone":"05-6625629","other":"","location":{"lat":23.697903,"lng":120.405768}},{"name":"黃滄前","god":"福德正神","area":"金門縣","address":"金門縣金沙鎮光前里後水頭1之1號","religion":"道教","buildType":"適用監督寺廟條例寺廟","orgType":"管理委員會制","phone":"082-351505","other":"","location":{"lat":24.4882832,"lng":118.4127107}},{"name":"王惠","god":"福德正神","area":"臺北市","address":"臺北市大同區迪化街２段鄰江里304號","religion":"道教","buildType":"適用監督寺廟條例寺廟","orgType":"其他","phone":"02-25965316","other":"","location":{"lat":25.0716442,"lng":121.5119936}},{"name":"江輝三","god":"福德正神","area":"臺南市","address":"臺南市關廟區東安街五甲里268巷1號","religion":"道教","buildType":"適用監督寺廟條例寺廟","orgType":"其他","phone":"06-59520951","other":"","location":{"lat":22.9545141,"lng":120.3320454}},{"name":"陳文銘(代)","god":"福德正神","area":"臺北市","address":"臺北市北投區磺港路清江里68號","religion":"道教","buildType":"適用監督寺廟條例寺廟","orgType":"管理委員會制","phone":"02-28935859","other":"","location":{"lat":25.1320727,"lng":121.5033699}},{"name":"彭成熒","god":"福德正神","area":"新北市","address":"新北市土城區清溪里青雲路183巷","religion":"道教","buildType":"適用監督寺廟條例寺廟","orgType":"管理人(住持)制","phone":"02-22600638","other":"","location":{"lat":24.9826833,"lng":121.459527}},{"name":"林朱高","god":"福德正神","area":"屏東縣","address":"屏東縣長治鄉復興路復興村337號","religion":"道教","buildType":"適用監督寺廟條例寺廟","orgType":"管理人(住持)制","phone":"-","other":"","location":{"lat":22.68521,"lng":120.5429557}},{"name":"黃文澤","god":"福德正神","area":"彰化縣","address":"彰化縣員林市振興里山腳路二段589巷202號","religion":"道教","buildType":"適用監督寺廟條例寺廟","orgType":"其他","phone":"04-8337655","other":"","location":{"lat":23.9480525,"lng":120.6008049}},{"name":"張焰灶","god":"福德正神","area":"宜蘭縣","address":"宜蘭縣宜蘭市泰山路七結巷9-10號","religion":"道教","buildType":"適用監督寺廟條例寺廟","orgType":"管理委員會制","phone":"03-9355303","other":"","location":{"lat":24.7482116,"lng":121.7374043}},{"name":"簡榮俊","god":"福德正神","area":"高雄市","address":"高雄市大寮區新厝里（路）二○號","religion":"道教","buildType":"適用監督寺廟條例寺廟","orgType":"管理人(住持)制","phone":"07-8915250","other":""},{"name":"莊建成","god":"福德正神","area":"桃園市","address":"桃園市中壢區新生路水尾里522-1號","religion":"道教","buildType":"適用監督寺廟條例寺廟","orgType":"管理委員會制","phone":"03-4342779","other":"","location":{"lat":24.968675,"lng":121.223912}},{"name":"鄭順和","god":"福德正神","area":"屏東縣","address":"屏東縣里港鄉土庫路土庫村111-1號旁","religion":"道教","buildType":"適用監督寺廟條例寺廟","orgType":"管理人(住持)制","phone":"08-0000000","other":""},{"name":"廖濱浴","god":"福德正神","area":"臺南市","address":"臺南市白河區昇安里埤子頭12鄰","religion":"道教","buildType":"適用監督寺廟條例寺廟","orgType":"管理人(住持)制","phone":"06-6859092","other":""},{"name":"陳萬生","god":"福德正神","area":"臺北市","address":"臺北市中山區德惠街圓山里11號","religion":"道教","buildType":"適用監督寺廟條例寺廟","orgType":"其他","phone":"02-25969325","other":"","location":{"lat":25.0669396,"lng":121.5255473}},